,TYPE,STATUT,ADRESSE,ARRONDISSEMENT,HORAIRE,ACCES_PMR,RELAIS_BEBE,URL_FICHE_EQUIPEMENT,geo_shape,geo_point_2d,lon,lat
0,SANISETTE,,RUE ROBERT BLACHE,75010,6h/1h,Oui,Non,,"{""coordinates"": [[2.363990501903871, 48.87701431314924]], ""type"": ""MultiPoint""}","48.87701431314924,2.363990501903871",2.363990501903871,48.87701431314924
1,SANISETTE,,face au 50 QUAI DE JEMMAPES,75010,24h/24h,Oui,Non,,"{""coordinates"": [[2.36659750721216, 48.87002790121456]], ""type"": ""MultiPoint""}","48.87002790121456,2.36659750721216",2.36659750721216,48.87002790121456
2,SANISETTE,,face au 4 BOULEVARD RICHARD LENOIR,75011,24h/24h,Oui,Non,,"{""coordinates"": [[2.36970018383113, 48.853983171388194]], ""type"": ""MultiPoint""}","48.853983171388194,2.36970018383113",2.36970018383113,48.853983171388194
3,SANISETTE,,opposé au 13 BOULEVARD DE MENILMONTANT,75011,6h/22h,Oui,Non,,"{""coordinates"": [[2.389122267946412, 48.85923461154838]], ""type"": ""MultiPoint""}","48.85923461154838,2.389122267946412",2.389122267946412,48.85923461154838
4,SANISETTE,,face au 7 BOULEVARD DE MENILMONTANT,75011,6h/22h,Oui,Non,,"{""coordinates"": [[2.38932122025704, 48.85881749412743]], ""type"": ""MultiPoint""}","48.85881749412743,2.38932122025704",2.38932122025704,48.85881749412743
5,SANISETTE,,1129  BOULEVARD JULES FERRY,75011,6h/22h,Oui,Non,,"{""coordinates"": [[2.368575496201813, 48.86729232571321]], ""type"": ""MultiPoint""}","48.86729232571321,2.368575496201813",2.368575496201813,48.86729232571321
6,SANISETTE,,259 bis AVENUE DAUMESNIL,75012,6h/22h,Oui,Non,,"{""coordinates"": [[2.404394145483592, 48.83651368622266]], ""type"": ""MultiPoint""}","48.83651368622266,2.404394145483592",2.404394145483592,48.83651368622266
7,SANISETTE,,face au 61 BOULEVARD AUGUSTE BLANQUI,75013,24h/24h,Oui,Non,,"{""coordinates"": [[2.349425440864941, 48.82948471703286]], ""type"": ""MultiPoint""}","48.82948471703286,2.349425440864941",2.349425440864941,48.82948471703286
8,SANISETTE,,88  AVENUE DU MAINE,75014,6h/1h,Oui,Non,,"{""coordinates"": [[2.322338362051345, 48.83811061304954]], ""type"": ""MultiPoint""}","48.83811061304954,2.322338362051345",2.322338362051345,48.83811061304954
9,SANISETTE,,68  RUE DE LA PROCESSION,75015,6h/22h,Oui,Non,,"{""coordinates"": [[2.309823199313869, 48.836413614647896]], ""type"": ""MultiPoint""}","48.836413614647896,2.309823199313869",2.309823199313869,48.836413614647896
10,SANISETTE,,6  BOULEVARD DU MONTPARNASSE,75015,24h/24h,Oui,Non,,"{""coordinates"": [[2.316945653588202, 48.846521372658216]], ""type"": ""MultiPoint""}","48.846521372658216,2.316945653588202",2.316945653588202,48.846521372658216
11,SANISETTE,,364  RUE LECOURBE,75015,6h/22h,Oui,Non,,"{""coordinates"": [[2.281691816923769, 48.836240943583995]], ""type"": ""MultiPoint""}","48.836240943583995,2.281691816923769",2.281691816923769,48.836240943583995
12,SANISETTE,,PLACE CHARLES FILLION,75017,24h/24h,Oui,Non,,"{""coordinates"": [[2.315811510931308, 48.88847096557176]], ""type"": ""MultiPoint""}","48.88847096557176,2.315811510931308",2.315811510931308,48.88847096557176
13,SANISETTE,,face au 10 BOULEVARD DES BATIGNOLLES,75017,24h/24h,Oui,Non,,"{""coordinates"": [[2.326311830075078, 48.88334503192717]], ""type"": ""MultiPoint""}","48.88334503192717,2.326311830075078",2.326311830075078,48.88334503192717
14,SANISETTE,,3  AVENUE DE LA PORTE D AUBERVILLIERS,75018,6h/22h,Oui,Non,,"{""coordinates"": [[2.370126499080757, 48.899198846438914]], ""type"": ""MultiPoint""}","48.899198846438914,2.370126499080757",2.370126499080757,48.899198846438914
15,SANISETTE,,face au 148 BOULEVARD DE MENILMONTANT,75020,24h/24h,Oui,Non,,"{""coordinates"": [[2.383389726625512, 48.86675503488674]], ""type"": ""MultiPoint""}","48.86675503488674,2.383389726625512",2.383389726625512,48.86675503488674
16,SANISETTE,,34  BOULEVARD DE BELLEVILLE,75020,6h/22h,Oui,Non,,"{""coordinates"": [[2.381897995848262, 48.86834301160021]], ""type"": ""MultiPoint""}","48.86834301160021,2.381897995848262",2.381897995848262,48.86834301160021
17,SANISETTE,,131  RUE D AVRON,75020,6h/22h,Oui,Non,,"{""coordinates"": [[2.409258092200667, 48.85331628203856]], ""type"": ""MultiPoint""}","48.85331628203856,2.409258092200667",2.409258092200667,48.85331628203856
18,SANISETTE,,BOULEVARD MORTIER,75020,24h/24h,Oui,Non,,"{""coordinates"": [[2.4069893470423622, 48.875944318964045]], ""type"": ""MultiPoint""}","48.875944318964045,2.4069893470423622",2.4069893470423622,48.875944318964045
19,SANISETTE,,2  RUE DE LA LINGERIE,75001,24h/24h,Oui,Non,,"{""coordinates"": [[2.346478360952597, 48.86028377588714]], ""type"": ""MultiPoint""}","48.86028377588714,2.346478360952597",2.346478360952597,48.86028377588714
20,SANISETTE,,79  BOULEVARD DU TEMPLE,75003,24h/24h,Oui,Non,,"{""coordinates"": [[2.366305527110086, 48.86355463067629]], ""type"": ""MultiPoint""}","48.86355463067629,2.366305527110086",2.366305527110086,48.86355463067629
21,SANISETTE,,6  QUAI DE GESVRES,75004,24h/24h,Oui,Non,,"{""coordinates"": [[2.349796463968451, 48.856486160078234]], ""type"": ""MultiPoint""}","48.856486160078234,2.349796463968451",2.349796463968451,48.856486160078234
22,SANISETTE,,123  RUE SAINT MARTIN,75004,24h/24h,Oui,Non,,"{""coordinates"": [[2.351315750121665, 48.86079042790049]], ""type"": ""MultiPoint""}","48.86079042790049,2.351315750121665",2.351315750121665,48.86079042790049
23,SANISETTE,,RUE ORTOLON,75005,6h/22h,Oui,Non,,"{""coordinates"": [[2.350590246372097, 48.8431945688025]], ""type"": ""MultiPoint""}","48.8431945688025,2.350590246372097",2.350590246372097,48.8431945688025
24,SANISETTE,,40  RUE DE SEVRES,75007,6h/22h,Oui,Non,,"{""coordinates"": [[2.323054655081175, 48.84983487675197]], ""type"": ""MultiPoint""}","48.84983487675197,2.323054655081175",2.323054655081175,48.84983487675197
25,SANISETTE,,118  BOULEVARD DE LA VILLETTE,75010,6h/22h,Oui,Non,,"{""coordinates"": [[2.3709710108818243, 48.87736769831583]], ""type"": ""MultiPoint""}","48.87736769831583,2.3709710108818243",2.3709710108818243,48.87736769831583
26,TOILETTES,,SQUARE FRANCIS LEMARQUE,75011,Voir fiche équipement,Non,Non,https://www.paris.fr/equipements/square-francis-lemarque-2844,"{""coordinates"": [[2.376699589913922, 48.85600860589478]], ""type"": ""MultiPoint""}","48.85600860589478,2.376699589913922",2.376699589913922,48.85600860589478
27,TOILETTES,,JARDIN ILAN HALIMI (ANC. RUE DE FECAMP - MICHEL BIZOT),75012,Voir fiche équipement,Non,Non,https://www.paris.fr/equipements/jardin-ilan-halimi-2595,"{""coordinates"": [[2.401190946770578, 48.83625106997376]], ""type"": ""MultiPoint""}","48.83625106997376,2.401190946770578",2.401190946770578,48.83625106997376
28,TOILETTES,,SQUARE MAURICE KRIEGEL-VALRIMONT DIT SQUARE DE CLIGNANCOURT,75018,Voir fiche équipement,Oui,Non,https://www.paris.fr/equipements/square-maurice-kriegel-valrimont-ex-de-clignancourt-2651,"{""coordinates"": [[2.346425110390599, 48.89324524823646]], ""type"": ""MultiPoint""}","48.89324524823646,2.346425110390599",2.346425110390599,48.89324524823646
29,TOILETTES,,JARDINS ROSA LUXEMBOURG,75018,Voir fiche équipement,Non,Non,https://www.paris.fr/equipements/jardins-rosa-luxemburg-17580,"{""coordinates"": [[2.363501324901452, 48.88975238967336]], ""type"": ""MultiPoint""}","48.88975238967336,2.363501324901452",2.363501324901452,48.88975238967336
30,TOILETTES,,SQUARE DU CARDINAL WYSZINSKI,75014,Voir fiche équipement,Non,Non,https://www.paris.fr/equipements/square-du-cardinal-wyszynski-2549,"{""coordinates"": [[2.316402806531694, 48.83654537380638]], ""type"": ""MultiPoint""}","48.83654537380638,2.316402806531694",2.316402806531694,48.83654537380638
31,TOILETTES,,JARDIN DU RANELAGH,75016,Voir fiche équipement,Oui,Non,https://www.paris.fr/equipements/jardin-du-ranelagh-1778,"{""coordinates"": [[2.268313503528244, 48.85825224076739]], ""type"": ""MultiPoint""}","48.85825224076739,2.268313503528244",2.268313503528244,48.85825224076739
32,TOILETTES,,SQUARE DES BATIGNOLLES,75017,Voir fiche équipement,Non,Non,https://www.paris.fr/equipements/square-des-batignolles-1761,"{""coordinates"": [[2.317249787799816, 48.887198683574034]], ""type"": ""MultiPoint""}","48.887198683574034,2.317249787799816",2.317249787799816,48.887198683574034
33,TOILETTES,,JARDIN TINO ROSSI - MUSEE DE LA SCULPTURE EN PLEIN AIR,75005,Voir fiche équipement,Non,Non,https://www.paris.fr/equipements/jardin-tino-rossi-1786,"{""coordinates"": [[2.359146506463063, 48.84843664146207]], ""type"": ""MultiPoint""}","48.84843664146207,2.359146506463063",2.359146506463063,48.84843664146207
34,SANISETTE,,face au 28 RUE DU GENERAL GUILHEM,75011,6h/1h,Oui,Non,,"{""coordinates"": [[2.379051392752819, 48.86230061990073]], ""type"": ""MultiPoint""}","48.86230061990073,2.379051392752819",2.379051392752819,48.86230061990073
35,SANISETTE,,111  AVENUE DAUMESNIL,75012,24h/24h,Oui,Non,,"{""coordinates"": [[2.380317848061393, 48.84498445223605]], ""type"": ""MultiPoint""}","48.84498445223605,2.380317848061393",2.380317848061393,48.84498445223605
36,SANISETTE,,126  BOULEVARD DE L HOPITAL,75013,6h/22h,Oui,Non,,"{""coordinates"": [[2.357805850885123, 48.834805438287674]], ""type"": ""MultiPoint""}","48.834805438287674,2.357805850885123",2.357805850885123,48.834805438287674
37,SANISETTE,,151  BOULEVARD VINCENT AURIOL,75013,6h/22h,Oui,Non,,"{""coordinates"": [[2.361580551096068, 48.832713522967]], ""type"": ""MultiPoint""}","48.832713522967,2.361580551096068",2.361580551096068,48.832713522967
38,SANISETTE,,BOULEVARD ARAGO,75013,6h/22h,Oui,Non,,"{""coordinates"": [[2.346369907448935, 48.83496155198776]], ""type"": ""MultiPoint""}","48.83496155198776,2.346369907448935",2.346369907448935,48.83496155198776
39,SANISETTE,,3  BOULEVARD DE L HOPITAL,75013,24h/24h,Oui,Non,,"{""coordinates"": [[2.364334002626625, 48.84307404437706]], ""type"": ""MultiPoint""}","48.84307404437706,2.364334002626625",2.364334002626625,48.84307404437706
40,SANISETTE,,185  BOULEVARD LEFEBVRE,75015,6h/22h,Oui,Non,,"{""coordinates"": [[2.30336605349608, 48.8282841141784]], ""type"": ""MultiPoint""}","48.8282841141784,2.30336605349608",2.30336605349608,48.8282841141784
41,SANISETTE,,4  RUE DU COMMANDANT RENE MOUCHOTTE,75015,24h/24h,Oui,Non,,"{""coordinates"": [[2.321410922508021, 48.8399779389822]], ""type"": ""MultiPoint""}","48.8399779389822,2.321410922508021",2.321410922508021,48.8399779389822
42,SANISETTE,,face au 170 RUE DE LOURMEL,75015,6h/22h,Oui,Non,,"{""coordinates"": [[2.282556463784303, 48.839092109817905]], ""type"": ""MultiPoint""}","48.839092109817905,2.282556463784303",2.282556463784303,48.839092109817905
43,SANISETTE,,277  RUE DE VAUGIRARD,75015,6h/22h,Oui,Non,,"{""coordinates"": [[2.301959067980262, 48.83966605396287]], ""type"": ""MultiPoint""}","48.83966605396287,2.301959067980262",2.301959067980262,48.83966605396287
44,SANISETTE,,25  AVENUE DE LOWENDAL,75015,6h/22h,Oui,Non,,"{""coordinates"": [[2.3035640343865422, 48.849184708415834]], ""type"": ""MultiPoint""}","48.849184708415834,2.3035640343865422",2.3035640343865422,48.849184708415834
45,SANISETTE,,86  RUE DE LA FEDERATION,75015,24h/24h,Oui,Non,,"{""coordinates"": [[2.297988285539683, 48.85284635560979]], ""type"": ""MultiPoint""}","48.85284635560979,2.297988285539683",2.297988285539683,48.85284635560979
46,SANISETTE,,face au 41 RUE DES MORILLONS,75015,6h/22h,Oui,Non,,"{""coordinates"": [[2.299498679290673, 48.83312572463117]], ""type"": ""MultiPoint""}","48.83312572463117,2.299498679290673",2.299498679290673,48.83312572463117
47,SANISETTE,,72  AVENUE DE VILLIERS,75017,6h/22h,Oui,Non,,"{""coordinates"": [[2.304206179918619, 48.884027564002565]], ""type"": ""MultiPoint""}","48.884027564002565,2.304206179918619",2.304206179918619,48.884027564002565
48,SANISETTE,,RUE BOTZARIS,75019,24h/24h,Oui,Non,,"{""coordinates"": [[2.384420443356067, 48.87938389016798]], ""type"": ""MultiPoint""}","48.87938389016798,2.384420443356067",2.384420443356067,48.87938389016798
49,SANISETTE,,PLACE DE L ADJUDANT VINCENOT,75020,6h/22h,Oui,Non,,"{""coordinates"": [[2.409358996058923, 48.870690811293336]], ""type"": ""MultiPoint""}","48.870690811293336,2.409358996058923",2.409358996058923,48.870690811293336
50,SANISETTE,,RUE COQUILLIERE,75001,6h/1h,Oui,Non,,"{""coordinates"": [[2.342472298693266, 48.8635474009773]], ""type"": ""MultiPoint""}","48.8635474009773,2.342472298693266",2.342472298693266,48.8635474009773
51,SANISETTE,,23  BOULEVARD DE SEBASTOPOL,75001,24h/24h,Oui,Non,,"{""coordinates"": [[2.348837230656095, 48.85985523410491]], ""type"": ""MultiPoint""}","48.85985523410491,2.348837230656095",2.348837230656095,48.85985523410491
52,SANISETTE,,BOULEVARD DE SEBASTOPOL,75002,6h/22h,Oui,Non,,"{""coordinates"": [[2.35161126358933, 48.8648280162637]], ""type"": ""MultiPoint""}","48.8648280162637,2.35161126358933",2.35161126358933,48.8648280162637
53,TOILETTES,,JARDIN DU PORT DE L'ARSENAL,75012,Voir fiche équipement,Oui,Non,https://www.paris.fr/equipements/jardin-du-port-de-l-arsenal-1783,"{""coordinates"": [[2.367618921882219, 48.84888019194627]], ""type"": ""MultiPoint""}","48.84888019194627,2.367618921882219",2.367618921882219,48.84888019194627
54,TOILETTES,,SQUARE DE L'AVENUE BOUTROUX,75013,Voir fiche équipement,Oui,Non,https://www.paris.fr/equipements/jardin-clara-zetkin-ex-square-boutroux-2517,"{""coordinates"": [[2.375899565672565, 48.82166499053291]], ""type"": ""MultiPoint""}","48.82166499053291,2.375899565672565",2.375899565672565,48.82166499053291
55,TOILETTES,,SQUARE SAINT-ELOI,75012,Voir fiche équipement,Oui,Non,https://www.paris.fr/equipements/square-saint-eloi-2597,"{""coordinates"": [[2.387662295775836, 48.84457582856606]], ""type"": ""MultiPoint""}","48.84457582856606,2.387662295775836",2.387662295775836,48.84457582856606
56,TOILETTES,,PARC MONTSOURIS,75014,Voir fiche équipement,Oui,Non,https://www.paris.fr/equipements/jardin-et-aire-de-jeux-de-la-zac-alesia-montsouris-2867,"{""coordinates"": [[2.339848934049351, 48.82416257802962]], ""type"": ""MultiPoint""}","48.82416257802962,2.339848934049351",2.339848934049351,48.82416257802962
57,TOILETTES,,PARC CLICHY-BATIGNOLLES - MARTIN LUTHER KING,75017,Voir fiche équipement,Oui,Non,https://www.paris.fr/equipements/parc-clichy-batignolles-martin-luther-king-2817,"{""coordinates"": [[2.315372554485153, 48.889170022687885]], ""type"": ""MultiPoint""}","48.889170022687885,2.315372554485153",2.315372554485153,48.889170022687885
58,WC PUBLICS PERMANENTS,,Boulevard Arago,75014,24h/24h,Non,Non,,"{""coordinates"": [[2.340827692229535, 48.83468779460271]], ""type"": ""MultiPoint""}","48.83468779460271,2.340827692229535",2.340827692229535,48.83468779460271
59,SANISETTE,,face au 113 BOULEVARD VOLTAIRE,75011,6h/22h,Oui,Non,,"{""coordinates"": [[2.38095649245684, 48.857188156526306]], ""type"": ""MultiPoint""}","48.857188156526306,2.38095649245684",2.38095649245684,48.857188156526306
60,SANISETTE,,135  RUE DE LA ROQUETTE,75011,6h/1h,Oui,Non,,"{""coordinates"": [[2.383945551395375, 48.85869214568334]], ""type"": ""MultiPoint""}","48.85869214568334,2.383945551395375",2.383945551395375,48.85869214568334
61,SANISETTE,,44  BOULEVARD VINCENT AURIOL,75013,24h/24h,Oui,Non,,"{""coordinates"": [[2.368782607297407, 48.83523926554277]], ""type"": ""MultiPoint""}","48.83523926554277,2.368782607297407",2.368782607297407,48.83523926554277
62,SANISETTE,,46  RUE CHARLES MOUREU,75013,6h/22h,Oui,Non,,"{""coordinates"": [[2.360778312327731, 48.829082146443014]], ""type"": ""MultiPoint""}","48.829082146443014,2.360778312327731",2.360778312327731,48.829082146443014
63,SANISETTE,,3  RUE MAURICE NOGUES,75014,6h/22h,Oui,Non,,"{""coordinates"": [[2.305343756075017, 48.826231659312086]], ""type"": ""MultiPoint""}","48.826231659312086,2.305343756075017",2.305343756075017,48.826231659312086
64,SANISETTE,,199  AVENUE DU MAINE,75014,6h/22h,Oui,Non,,"{""coordinates"": [[2.3263079060218033, 48.82961024511326]], ""type"": ""MultiPoint""}","48.82961024511326,2.3263079060218033",2.3263079060218033,48.82961024511326
65,SANISETTE,,83  RUE DESNOUETTES,75015,6h/22h,Oui,Non,,"{""coordinates"": [[2.284141147850295, 48.83462852331886]], ""type"": ""MultiPoint""}","48.83462852331886,2.284141147850295",2.284141147850295,48.83462852331886
66,SANISETTE,,38  RUE CAMBRONNE,75015,6h/22h,Oui,Non,,"{""coordinates"": [[2.30189794395814, 48.84552661355718]], ""type"": ""MultiPoint""}","48.84552661355718,2.30189794395814",2.30189794395814,48.84552661355718
67,SANISETTE,,170  AVENUE DE VERSAILLES,75016,6h/22h,Oui,Non,,"{""coordinates"": [[2.2630781408913743, 48.83985538119863]], ""type"": ""MultiPoint""}","48.83985538119863,2.2630781408913743",2.2630781408913743,48.83985538119863
68,SANISETTE,,64  AVENUE DE LA GRANDE ARMEE,75017,6h/22h,Oui,Non,,"{""coordinates"": [[2.285950309757017, 48.87692989046236]], ""type"": ""MultiPoint""}","48.87692989046236,2.285950309757017",2.285950309757017,48.87692989046236
69,SANISETTE,,face au 32 AVENUE NIEL,75017,6h/22h,Oui,Non,,"{""coordinates"": [[2.295532524008157, 48.8814959992131]], ""type"": ""MultiPoint""}","48.8814959992131,2.295532524008157",2.295532524008157,48.8814959992131
70,SANISETTE,,PLACE DES ABBESSES,75018,19h/7h,Oui,Non,,"{""coordinates"": [[2.338685892541593, 48.884530709513804]], ""type"": ""MultiPoint""}","48.884530709513804,2.338685892541593",2.338685892541593,48.884530709513804
71,SANISETTE,,RUE GERARD DE NERVAL,75018,6h/22h,Oui,Non,,"{""coordinates"": [[2.335106237051519, 48.90059318004156]], ""type"": ""MultiPoint""}","48.90059318004156,2.335106237051519",2.335106237051519,48.90059318004156
72,SANISETTE,,43  BOULEVARD BARBES,75018,24h/24h,Oui,Non,,"{""coordinates"": [[2.349430631664718, 48.88849413840531]], ""type"": ""MultiPoint""}","48.88849413840531,2.349430631664718",2.349430631664718,48.88849413840531
73,SANISETTE,,58  AVENUE DE FLANDRE,75019,6h/22h,Oui,Non,,"{""coordinates"": [[2.373749928304556, 48.88818203567653]], ""type"": ""MultiPoint""}","48.88818203567653,2.373749928304556",2.373749928304556,48.88818203567653
74,SANISETTE,,7  RUE DE CAMBRAI,75019,6h/22h,Oui,Non,,"{""coordinates"": [[2.3789629758483413, 48.895495351952356]], ""type"": ""MultiPoint""}","48.895495351952356,2.3789629758483413",2.3789629758483413,48.895495351952356
75,SANISETTE,,RUE DE LA CROIX SAINT SIMON,75020,6h/22h,Oui,Non,,"{""coordinates"": [[2.409918203488957, 48.85577188047998]], ""type"": ""MultiPoint""}","48.85577188047998,2.409918203488957",2.409918203488957,48.85577188047998
76,SANISETTE,,face au 13 PLACE DE LA BOURSE,75002,6h/22h,Oui,Non,,"{""coordinates"": [[2.34062639508409, 48.86891836470313]], ""type"": ""MultiPoint""}","48.86891836470313,2.34062639508409",2.34062639508409,48.86891836470313
77,SANISETTE,,117  RUE MONTMARTRE,75002,6h/22h,Oui,Non,,"{""coordinates"": [[2.343235945649155, 48.86874906648296]], ""type"": ""MultiPoint""}","48.86874906648296,2.343235945649155",2.343235945649155,48.86874906648296
78,SANISETTE,,AVENUE DE L OBSERVATOIRE,75006,6h/22h,Oui,Non,,"{""coordinates"": [[2.337228424428142, 48.84222410041659]], ""type"": ""MultiPoint""}","48.84222410041659,2.337228424428142",2.337228424428142,48.84222410041659
79,SANISETTE,,PLACE VAUBAN,75007,6h/22h,Oui,Non,,"{""coordinates"": [[2.311319652738035, 48.853625040539285]], ""type"": ""MultiPoint""}","48.853625040539285,2.311319652738035",2.311319652738035,48.853625040539285
80,SANISETTE,,20  BOULEVARD SAINT MARTIN,75010,24h/24h,Oui,Non,,"{""coordinates"": [[2.356173275732148, 48.868999656313925]], ""type"": ""MultiPoint""}","48.868999656313925,2.356173275732148",2.356173275732148,48.868999656313925
81,TOILETTES,,SQUARE ARISTIDE CAVAILLE-COLL,75010,Voir fiche équipement,Non,Non,https://www.paris.fr/equipements/square-aristide-cavaille-coll-2481,"{""coordinates"": [[2.35212188202011, 48.87832751275092]], ""type"": ""MultiPoint""}","48.87832751275092,2.35212188202011",2.35212188202011,48.87832751275092
82,TOILETTES,,JARDIN RACHMANINOV,75018,Voir fiche équipement,Oui,Non,https://www.paris.fr/equipements/jardin-rachmaninov-2681,"{""coordinates"": [[2.363815451695337, 48.89555859860546]], ""type"": ""MultiPoint""}","48.89555859860546,2.363815451695337",2.363815451695337,48.89555859860546
83,TOILETTES,,JARDIN SERGE GAINSBOURG,75019,Voir fiche équipement,Oui,Non,https://www.paris.fr/equipements/jardin-serge-gainsbourg-6337,"{""coordinates"": [[2.408116526394867, 48.87834464094732]], ""type"": ""MultiPoint""}","48.87834464094732,2.408116526394867",2.408116526394867,48.87834464094732
84,TOILETTES,,COULEE VERTE RENE DUMONT - PROMENADE DE LA RUE DU SAHEL,75012,Voir fiche équipement,Oui,Non,https://www.paris.fr/equipements/square-charles-peguy-2575,"{""coordinates"": [[2.402205294934227, 48.841005858981525]], ""type"": ""MultiPoint""}","48.841005858981525,2.402205294934227",2.402205294934227,48.841005858981525
85,TOILETTES,,PARC MONTSOURIS,75014,Voir fiche équipement,Non,Non,https://www.paris.fr/equipements/jardin-et-aire-de-jeux-de-la-zac-alesia-montsouris-2867,"{""coordinates"": [[2.336944332056308, 48.82376169991306]], ""type"": ""MultiPoint""}","48.82376169991306,2.336944332056308",2.336944332056308,48.82376169991306
86,TOILETTES,,SQUARE VIOLET,75015,Voir fiche équipement,Non,Non,https://www.paris.fr/equipements/square-violet-2531,"{""coordinates"": [[2.289199564769723, 48.844292287340586]], ""type"": ""MultiPoint""}","48.844292287340586,2.289199564769723",2.289199564769723,48.844292287340586
87,TOILETTES,,PARC ANDRE CITROEN,75015,Voir fiche équipement,Non,Non,https://www.paris.fr/equipements/parc-andre-citroen-1791,"{""coordinates"": [[2.276196439464743, 48.84174621728004]], ""type"": ""MultiPoint""}","48.84174621728004,2.276196439464743",2.276196439464743,48.84174621728004
88,TOILETTES,,PARC DES BUTTES CHAUMONT,75019,Voir fiche équipement,Oui,Non,https://www.paris.fr/equipements/parc-des-buttes-chaumont-1757,"{""coordinates"": [[2.383640963547957, 48.88182476781304]], ""type"": ""MultiPoint""}","48.88182476781304,2.383640963547957",2.383640963547957,48.88182476781304
89,TOILETTES,,PARC DE BELLEVILLE,75020,Voir fiche équipement,Oui,Non,https://www.paris.fr/equipements/jardin-des-couronnes-2748,"{""coordinates"": [[2.385561771177437, 48.87045899659526]], ""type"": ""MultiPoint""}","48.87045899659526,2.385561771177437",2.385561771177437,48.87045899659526
90,TOILETTES,,SQUARE ALEXANDRE ET RENE PARODI,75016,Voir fiche équipement,Oui,Non,https://www.paris.fr/equipements/square-alexandre-et-rene-parodi-2752,"{""coordinates"": [[2.28100617118407, 48.87626368925604]], ""type"": ""MultiPoint""}","48.87626368925604,2.28100617118407",2.28100617118407,48.87626368925604
91,SANISETTE,,RUE DU FAUBOURG SAINT DENIS,75010,6h/22h,Oui,Non,,"{""coordinates"": [[2.356251357404286, 48.875775391755184]], ""type"": ""MultiPoint""}","48.875775391755184,2.356251357404286",2.356251357404286,48.875775391755184
92,SANISETTE,,BOULEVARD DE DENAIN,75010,6h/22h,Oui,Non,,"{""coordinates"": [[2.354189523068228, 48.879128874649425]], ""type"": ""MultiPoint""}","48.879128874649425,2.354189523068228",2.354189523068228,48.879128874649425
93,SANISETTE,,51  QUAI DE VALMY,75010,24h/24h,Oui,Non,,"{""coordinates"": [[2.365863387720789, 48.87027367959495]], ""type"": ""MultiPoint""}","48.87027367959495,2.365863387720789",2.365863387720789,48.87027367959495
94,SANISETTE,,195  BOULEVARD VOLTAIRE,75011,6h/22h,Oui,Non,,"{""coordinates"": [[2.387880334234302, 48.853292450305034]], ""type"": ""MultiPoint""}","48.853292450305034,2.387880334234302",2.387880334234302,48.853292450305034
95,SANISETTE,,face au 86 BOULEVARD RICHARD LENOIR,75011,24h/24h,Oui,Non,,"{""coordinates"": [[2.37266335372367, 48.861740756010526]], ""type"": ""MultiPoint""}","48.861740756010526,2.37266335372367",2.37266335372367,48.861740756010526
96,SANISETTE,,3  RUE DE MONTREUIL,75011,6h/22h,Oui,Non,,"{""coordinates"": [[2.384037963215138, 48.850431570799614]], ""type"": ""MultiPoint""}","48.850431570799614,2.384037963215138",2.384037963215138,48.850431570799614
97,SANISETTE,,87  AVENUE D ITALIE,75013,6h/22h,Oui,Non,,"{""coordinates"": [[2.358126804816616, 48.82394344207883]], ""type"": ""MultiPoint""}","48.82394344207883,2.358126804816616",2.358126804816616,48.82394344207883
98,SANISETTE,,146  BOULEVARD DE L HOPITAL,75013,6h/22h,Oui,Non,,"{""coordinates"": [[2.356164166273496, 48.83258393040573]], ""type"": ""MultiPoint""}","48.83258393040573,2.356164166273496",2.356164166273496,48.83258393040573
99,SANISETTE,,opposé au 41 RUE ESQUIROL,75013,6h/22h,Oui,Non,,"{""coordinates"": [[2.360048710711233, 48.835822547644895]], ""type"": ""MultiPoint""}","48.835822547644895,2.360048710711233",2.360048710711233,48.835822547644895
100,SANISETTE,,face au 57 BOULEVARD LEFEBVRE,75015,6h/22h,Oui,Non,,"{""coordinates"": [[2.291834085756656, 48.830961567192446]], ""type"": ""MultiPoint""}","48.830961567192446,2.291834085756656",2.291834085756656,48.830961567192446
101,SANISETTE,,face au 55 BOULEVARD DE VAUGIRARD,75015,6h/22h,Oui,Non,,"{""coordinates"": [[2.3164276371957753, 48.8409122311636]], ""type"": ""MultiPoint""}","48.8409122311636,2.3164276371957753",2.3164276371957753,48.8409122311636
102,SANISETTE,,RUE SAINT CHARLES,75015,6h/22h,Oui,Non,,"{""coordinates"": [[2.277982871077255, 48.83807356302152]], ""type"": ""MultiPoint""}","48.83807356302152,2.277982871077255",2.277982871077255,48.83807356302152
103,SANISETTE,,65  AVENUE EMILE ZOLA,75015,6h/1h,Oui,Non,,"{""coordinates"": [[2.284774819622887, 48.846550685068856]], ""type"": ""MultiPoint""}","48.846550685068856,2.284774819622887",2.284774819622887,48.846550685068856
104,SANISETTE,,11  RUE FRANCIS DE CROISSET,75018,6h/22h,Oui,Non,,"{""coordinates"": [[2.34445799806018, 48.899388215542245]], ""type"": ""MultiPoint""}","48.899388215542245,2.34445799806018",2.34445799806018,48.899388215542245
105,SANISETTE,,face au 154 RUE ORDENER,75018,6h/22h,Oui,Non,,"{""coordinates"": [[2.336892089522764, 48.89350244895165]], ""type"": ""MultiPoint""}","48.89350244895165,2.336892089522764",2.336892089522764,48.89350244895165
106,SANISETTE,,2  RUE RONSARD,75018,6h/22h,Oui,Non,,"{""coordinates"": [[2.344346951405808, 48.88511234133796]], ""type"": ""MultiPoint""}","48.88511234133796,2.344346951405808",2.344346951405808,48.88511234133796
107,SANISETTE,,74  BOULEVARD DE CLICHY,75018,24h/24h,Oui,Non,,"{""coordinates"": [[2.333530253543147, 48.88353488261509]], ""type"": ""MultiPoint""}","48.88353488261509,2.333530253543147",2.333530253543147,48.88353488261509
108,SANISETTE,,100  AVENUE DE FLANDRE,75019,6h/22h,Oui,Non,,"{""coordinates"": [[2.377243000431053, 48.89096040821487]], ""type"": ""MultiPoint""}","48.89096040821487,2.377243000431053",2.377243000431053,48.89096040821487
109,SANISETTE,,face au 45 AVENUE SIMON BOLIVAR,75019,24h/24h,Oui,Non,,"{""coordinates"": [[2.3805412942459823, 48.87623316458193]], ""type"": ""MultiPoint""}","48.87623316458193,2.3805412942459823",2.3805412942459823,48.87623316458193
110,SANISETTE,,6  AVENUE DE LA PORTE DE MONTREUIL,75020,6h/22h,Oui,Non,,"{""coordinates"": [[2.411516383464487, 48.85380970359548]], ""type"": ""MultiPoint""}","48.85380970359548,2.411516383464487",2.411516383464487,48.85380970359548
111,SANISETTE,,face au 4 PLACE MARTIN NADAUD,75020,24h/24h,Oui,Non,,"{""coordinates"": [[2.394717602157618, 48.864949741311236]], ""type"": ""MultiPoint""}","48.864949741311236,2.394717602157618",2.394717602157618,48.864949741311236
112,SANISETTE,,34  RUE DURIS,75020,6h/22h,Oui,Non,,"{""coordinates"": [[2.387631832716169, 48.86596750742653]], ""type"": ""MultiPoint""}","48.86596750742653,2.387631832716169",2.387631832716169,48.86596750742653
113,SANISETTE,,Jardin DES HALLES ALLEE BLAISE CENDRARS SUD OUEST,75001,6h/22h,Oui,Non,,"{""coordinates"": [[2.344254327997302, 48.862221666357485]], ""type"": ""MultiPoint""}","48.862221666357485,2.344254327997302",2.344254327997302,48.862221666357485
114,SANISETTE,,85  BOULEVARD DE SEBASTOPOL,75002,6h/22h,Oui,Non,,"{""coordinates"": [[2.35161126358933, 48.8648280162637]], ""type"": ""MultiPoint""}","48.8648280162637,2.35161126358933",2.35161126358933,48.8648280162637
115,SANISETTE,,91  RUE D ABOUKIR,75002,6h/22h,Oui,Non,,"{""coordinates"": [[2.348450028836779, 48.86816218874815]], ""type"": ""MultiPoint""}","48.86816218874815,2.348450028836779",2.348450028836779,48.86816218874815
116,SANISETTE,,1  BOULEVARD DES FILLES DU CALVAIRE,75003,24h/24h,Oui,Non,,"{""coordinates"": [[2.367032423762319, 48.861123131655724]], ""type"": ""MultiPoint""}","48.861123131655724,2.367032423762319",2.367032423762319,48.861123131655724
117,SANISETTE,,face au 171 RUE DU TEMPLE,75003,6h/22h,Oui,Non,,"{""coordinates"": [[2.36013286100841, 48.86497566729412]], ""type"": ""MultiPoint""}","48.86497566729412,2.36013286100841",2.36013286100841,48.86497566729412
118,SANISETTE,,10 bis RUE DE MOUSSY,75004,24h/24h,Oui,Non,,"{""coordinates"": [[2.35581305149286, 48.85783250805626]], ""type"": ""MultiPoint""}","48.85783250805626,2.35581305149286",2.35581305149286,48.85783250805626
119,SANISETTE,,88 ter BOULEVARD DE PORT ROYAL,75005,24h/24h,Oui,Non,,"{""coordinates"": [[2.338731588164609, 48.83920071261067]], ""type"": ""MultiPoint""}","48.83920071261067,2.338731588164609",2.338731588164609,48.83920071261067
120,SANISETTE,,BOULEVARD SAINT MICHEL,75006,24h/24h,Oui,Non,,"{""coordinates"": [[2.337484628388991, 48.84175443253953]], ""type"": ""MultiPoint""}","48.84175443253953,2.337484628388991",2.337484628388991,48.84175443253953
121,SANISETTE,,QUAI BRANLY,75007,24h/24h,Oui,Non,,"{""coordinates"": [[2.292315949121437, 48.85806633367225]], ""type"": ""MultiPoint""}","48.85806633367225,2.292315949121437",2.292315949121437,48.85806633367225
122,SANISETTE,,AVENUE FRANKLIN D ROOSEVELT,75008,6h/22h,Oui,Non,,"{""coordinates"": [[2.310160918160172, 48.87014131314519]], ""type"": ""MultiPoint""}","48.87014131314519,2.310160918160172",2.310160918160172,48.87014131314519
123,SANISETTE,,79 bis RUE LA FAYETTE,75009,6h/22h,Oui,Non,,"{""coordinates"": [[2.346852652338503, 48.87674207808279]], ""type"": ""MultiPoint""}","48.87674207808279,2.346852652338503",2.346852652338503,48.87674207808279
124,SANISETTE,,1  AVENUE RICHERAND,75010,24h/24h,Oui,Non,,"{""coordinates"": [[2.365465590341057, 48.87183853334346]], ""type"": ""MultiPoint""}","48.87183853334346,2.365465590341057",2.365465590341057,48.87183853334346
125,TOILETTES,,SQUARE DE LA ZAC DIDOT,75014,Voir fiche équipement,Non,Non,https://www.paris.fr/equipements/square-alberto-giacometti-2866,"{""coordinates"": [[2.3198918719148782, 48.833775430556955]], ""type"": ""MultiPoint""}","48.833775430556955,2.3198918719148782",2.3198918719148782,48.833775430556955
126,TOILETTES,,SQUARE RUES BELLEVILLE - TELEGRAPHE,75020,Voir fiche équipement,Non,Non,https://www.paris.fr/equipements/square-belleville-telegraphe-2724,"{""coordinates"": [[2.399281254578799, 48.87498498901931]], ""type"": ""MultiPoint""}","48.87498498901931,2.399281254578799",2.399281254578799,48.87498498901931
127,TOILETTES,,JARDIN DE LA ZAC D'ALESIA,75014,Voir fiche équipement,Non,Non,https://www.paris.fr/equipements/jardin-et-aire-de-jeux-de-la-zac-alesia-montsouris-2867,"{""coordinates"": [[2.33822983711128, 48.826190755689666]], ""type"": ""MultiPoint""}","48.826190755689666,2.33822983711128",2.33822983711128,48.826190755689666
128,TOILETTES,,PARC DE CHOISY,75013,Voir fiche équipement,Oui,Oui,https://www.paris.fr/equipements/parc-de-choisy-1803,"{""coordinates"": [[2.36173561557668, 48.827829639059495]], ""type"": ""MultiPoint""}","48.827829639059495,2.36173561557668",2.36173561557668,48.827829639059495
129,TOILETTES,,PARC KELLERMANN,75013,Voir fiche équipement,Non,Non,https://www.paris.fr/equipements/parc-kellermann-1794,"{""coordinates"": [[2.354932920573897, 48.81857910392336]], ""type"": ""MultiPoint""}","48.81857910392336,2.354932920573897",2.354932920573897,48.81857910392336
130,TOILETTES,,PARC GEORGES BRASSENS,75015,Voir fiche équipement,Oui,Non,https://www.paris.fr/equipements/parc-georges-brassens-1805,"{""coordinates"": [[2.299950913999615, 48.83162153125085]], ""type"": ""MultiPoint""}","48.83162153125085,2.299950913999615",2.299950913999615,48.83162153125085
131,URINOIR,,JARDIN D'EOLE - TERRAIN DE BASKET,75018,Voir fiche équipement,Non,Non,https://www.paris.fr/equipements/jardin-francoise-helene-jourda-ex-20-rue-du-departement-18075,"{""coordinates"": [[2.364774445573531, 48.886195073546475]], ""type"": ""MultiPoint""}","48.886195073546475,2.364774445573531",2.364774445573531,48.886195073546475
132,TOILETTES,,SQUARE MONTHOLON,75009,Voir fiche équipement,Oui,Non,https://www.paris.fr/equipements/square-montholon-2469,"{""coordinates"": [[2.346735643235951, 48.87722013771023]], ""type"": ""MultiPoint""}","48.87722013771023,2.346735643235951",2.346735643235951,48.87722013771023
133,TOILETTES,,SQUARE THOMAS JEFFERSON,75016,Voir fiche équipement,Oui,Non,https://www.paris.fr/equipements/square-thomas-jefferson-2606,"{""coordinates"": [[2.29470407503117, 48.86776558683861]], ""type"": ""MultiPoint""}","48.86776558683861,2.29470407503117",2.29470407503117,48.86776558683861
134,TOILETTES,,PARC DES BUTTES CHAUMONT,75019,Voir fiche équipement,Oui,Non,https://www.paris.fr/equipements/parc-des-buttes-chaumont-1757,"{""coordinates"": [[2.382779015108047, 48.882377973295455]], ""type"": ""MultiPoint""}","48.882377973295455,2.382779015108047",2.382779015108047,48.882377973295455
135,WC PUBLICS PERMANENTS,,Parc Rives de Seine,75007,Voir fiche équipement,Oui,Non,,"{""coordinates"": [[2.319567982948122, 48.862608094082965]], ""type"": ""MultiPoint""}","48.862608094082965,2.319567982948122",2.319567982948122,48.862608094082965
136,LAVATORY,,Place de l'Etoile,75008,Voir fiche équipement,Oui,Non,,"{""coordinates"": [[2.296062832904202, 48.87308210718639]], ""type"": ""MultiPoint""}","48.87308210718639,2.296062832904202",2.296062832904202,48.87308210718639
137,URINOIR,,PLACE HENRI FRENAY,75012,Voir fiche équipement,Non,Non,,"{""coordinates"": [[2.375760816543705, 48.84510802181112]], ""type"": ""MultiPoint""}","48.84510802181112,2.375760816543705",2.375760816543705,48.84510802181112
138,SANISETTE,,face au 85 bis BOULEVARD DE MAGENTA,75010,24h/24h,Oui,Non,,"{""coordinates"": [[2.355100900623778, 48.87715340155667]], ""type"": ""MultiPoint""}","48.87715340155667,2.355100900623778",2.355100900623778,48.87715340155667
139,SANISETTE,,face au 182 RUE DU FAUBOURG SAINT MARTIN,75010,6h/1h,Oui,Non,,"{""coordinates"": [[2.361645690432077, 48.878147412171884]], ""type"": ""MultiPoint""}","48.878147412171884,2.361645690432077",2.361645690432077,48.878147412171884
140,SANISETTE,,54  BOULEVARD DU TEMPLE,75011,24h/24h,Oui,Non,,"{""coordinates"": [[2.36500325622195, 48.86622478521031]], ""type"": ""MultiPoint""}","48.86622478521031,2.36500325622195",2.36500325622195,48.86622478521031
141,SANISETTE,,12  BOULEVARD DE BERCY,75012,24h/24h,Oui,Non,,"{""coordinates"": [[2.378218628043352, 48.839621340961756]], ""type"": ""MultiPoint""}","48.839621340961756,2.378218628043352",2.378218628043352,48.839621340961756
142,SANISETTE,,SQUARE ALESIA RIDER,75014,6h/22h,Oui,Non,,"{""coordinates"": [[2.325254307572461, 48.82837430991983]], ""type"": ""MultiPoint""}","48.82837430991983,2.325254307572461",2.325254307572461,48.82837430991983
143,SANISETTE,,18  AVENUE DE LA PORTE DE VANVES,75014,6h/22h,Oui,Non,,"{""coordinates"": [[2.304138725656074, 48.825507784271]], ""type"": ""MultiPoint""}","48.825507784271,2.304138725656074",2.304138725656074,48.825507784271
144,SANISETTE,,82  BOULEVARD BRUNE,75014,6h/22h,Oui,Non,,"{""coordinates"": [[2.315807289747573, 48.82524477075133]], ""type"": ""MultiPoint""}","48.82524477075133,2.315807289747573",2.315807289747573,48.82524477075133
145,SANISETTE,,150  RUE DE LA CONVENTION,75015,6h/22h,Oui,Non,,"{""coordinates"": [[2.291457980262013, 48.839418441383394]], ""type"": ""MultiPoint""}","48.839418441383394,2.291457980262013",2.291457980262013,48.839418441383394
146,SANISETTE,,76  RUE BRANCION,75015,6h/22h,Oui,Non,,"{""coordinates"": [[2.302733485419518, 48.83192956134313]], ""type"": ""MultiPoint""}","48.83192956134313,2.302733485419518",2.302733485419518,48.83192956134313
147,SANISETTE,,RUE DU THEATRE,75015,6h/1h,Oui,Non,,"{""coordinates"": [[2.287920080193913, 48.8490352798541]], ""type"": ""MultiPoint""}","48.8490352798541,2.287920080193913",2.287920080193913,48.8490352798541
148,SANISETTE,,opposé au 39 BOULEVARD DE L AMIRAL BRUIX,75016,6h/22h,Oui,Non,,"{""coordinates"": [[2.279587765082182, 48.875427964189015]], ""type"": ""MultiPoint""}","48.875427964189015,2.279587765082182",2.279587765082182,48.875427964189015
149,SANISETTE,,16  AVENUE DE SAINT OUEN,75018,6h/22h,Oui,Non,,"{""coordinates"": [[2.3259361111674, 48.888224506944354]], ""type"": ""MultiPoint""}","48.888224506944354,2.3259361111674",2.3259361111674,48.888224506944354
150,SANISETTE,,60  BOULEVARD DE LA CHAPELLE,75018,6h/1h,Oui,Non,,"{""coordinates"": [[2.355151477096697, 48.884205159907864]], ""type"": ""MultiPoint""}","48.884205159907864,2.355151477096697",2.355151477096697,48.884205159907864
151,SANISETTE,,29  RUE ERNESTINE,75018,6h/22h,Oui,Non,,"{""coordinates"": [[2.354609715503173, 48.89045444451696]], ""type"": ""MultiPoint""}","48.89045444451696,2.354609715503173",2.354609715503173,48.89045444451696
152,SANISETTE,,face au 3 RUE MARCEL SEMBAT,75018,24h/24h,Oui,Non,,"{""coordinates"": [[2.337690977054359, 48.899016851977834]], ""type"": ""MultiPoint""}","48.899016851977834,2.337690977054359",2.337690977054359,48.899016851977834
153,SANISETTE,,6  RUE DE PANAMA,75018,6h/22h,Oui,Non,,"{""coordinates"": [[2.352751478367211, 48.88762677637511]], ""type"": ""MultiPoint""}","48.88762677637511,2.352751478367211",2.352751478367211,48.88762677637511
154,SANISETTE,,opposé au 35 RUE BOINOD,75018,6h/22h,Oui,Non,,"{""coordinates"": [[2.351762865066177, 48.894130055640744]], ""type"": ""MultiPoint""}","48.894130055640744,2.351762865066177",2.351762865066177,48.894130055640744
155,SANISETTE,,68  QUAI DE LA LOIRE,75019,6h/22h,Oui,Non,,"{""coordinates"": [[2.377159137352045, 48.88659728582067]], ""type"": ""MultiPoint""}","48.88659728582067,2.377159137352045",2.377159137352045,48.88659728582067
156,SANISETTE,,9  RUE COQUILLIERE,75001,6h/1h,Oui,Non,,"{""coordinates"": [[2.342472298693266, 48.8635474009773]], ""type"": ""MultiPoint""}","48.8635474009773,2.342472298693266",2.342472298693266,48.8635474009773
157,SANISETTE,,face au 2 RUE AUBRY LE BOUCHER,75004,24h/24h,Oui,Non,,"{""coordinates"": [[2.350397746470584, 48.86021286930935]], ""type"": ""MultiPoint""}","48.86021286930935,2.350397746470584",2.350397746470584,48.86021286930935
158,SANISETTE,,130 ter BOULEVARD DE CLICHY,75009,24h/24h,Oui,Non,,"{""coordinates"": [[2.328969615964768, 48.884214349237055]], ""type"": ""MultiPoint""}","48.884214349237055,2.328969615964768",2.328969615964768,48.884214349237055
159,SANISETTE,,11  AVENUE TRUDAINE,75009,6h/22h,Oui,Non,,"{""coordinates"": [[2.345516263472959, 48.88166539264047]], ""type"": ""MultiPoint""}","48.88166539264047,2.345516263472959",2.345516263472959,48.88166539264047
160,SANISETTE,,PLACE DU COLONEL FABIEN,75010,6h/22h,Oui,Non,,"{""coordinates"": [[2.37008389883369, 48.87798177436245]], ""type"": ""MultiPoint""}","48.87798177436245,2.37008389883369",2.37008389883369,48.87798177436245
161,SANISETTE,,face au 1 RUE DE METZ,75010,24h/24h,Oui,Non,,"{""coordinates"": [[2.354561497762248, 48.87075131711197]], ""type"": ""MultiPoint""}","48.87075131711197,2.354561497762248",2.354561497762248,48.87075131711197
162,TOILETTES,,SQUARE D'ANVERS,75009,Voir fiche équipement,Oui,Non,https://www.paris.fr/equipements/square-d-anvers-2468,"{""coordinates"": [[2.34413295595609, 48.88238662258446]], ""type"": ""MultiPoint""}","48.88238662258446,2.34413295595609",2.34413295595609,48.88238662258446
163,TOILETTES,,JARDIN DAMIA,75011,Voir fiche équipement,Non,Non,https://www.paris.fr/equipements/jardin-damia-2734,"{""coordinates"": [[2.394009135967313, 48.8547522453211]], ""type"": ""MultiPoint""}","48.8547522453211,2.394009135967313",2.394009135967313,48.8547522453211
164,TOILETTES,,JARDIN CASQUE D'OR,75020,Voir fiche équipement,Non,Non,https://www.paris.fr/equipements/jardin-casque-d-or-2713,"{""coordinates"": [[2.401213775616216, 48.85392001443604]], ""type"": ""MultiPoint""}","48.85392001443604,2.401213775616216",2.401213775616216,48.85392001443604
165,TOILETTES,,BOIS DE BOULOGNE - PARC DE BAGATELLE - GRILLE D'HONNEUR,75016,Voir fiche équipement,Oui,Non,https://www.paris.fr/equipements/parc-de-bagatelle-1808,"{""coordinates"": [[2.248019578481179, 48.86883301602136]], ""type"": ""MultiPoint""}","48.86883301602136,2.248019578481179",2.248019578481179,48.86883301602136
166,TOILETTES,,JARDIN BRASSAI,75013,Voir fiche équipement,Non,Non,https://www.paris.fr/equipements/jardin-brassai-2571,"{""coordinates"": [[2.349436628957497, 48.828587086078144]], ""type"": ""MultiPoint""}","48.828587086078144,2.349436628957497",2.349436628957497,48.828587086078144
167,URINOIR,,JARDIN TINO ROSSI - MUSEE DE LA SCULPTURE EN PLEIN AIR,75005,Voir fiche équipement,Non,Non,https://www.paris.fr/equipements/jardin-tino-rossi-1786,"{""coordinates"": [[2.360430216680337, 48.8476257789993]], ""type"": ""MultiPoint""}","48.8476257789993,2.360430216680337",2.360430216680337,48.8476257789993
168,TOILETTES,,SQUARE DE L'OISEAU LUNAIRE,75015,Voir fiche équipement,Non,Non,https://www.paris.fr/equipements/square-de-l-oiseau-lunaire-ex-blomet-2519,"{""coordinates"": [[2.305588174307816, 48.842135463891644]], ""type"": ""MultiPoint""}","48.842135463891644,2.305588174307816",2.305588174307816,48.842135463891644
169,TOILETTES,,SQUARE SUZANNE BUISSON,75018,Voir fiche équipement,Oui,Non,https://www.paris.fr/equipements/square-suzanne-buisson-2688,"{""coordinates"": [[2.337110158514507, 48.88837160641975]], ""type"": ""MultiPoint""}","48.88837160641975,2.337110158514507",2.337110158514507,48.88837160641975
170,SANISETTE,,11  PLACE DE LA BATAILLE DE STALINGRAD,75010,6h/22h,Oui,Non,,"{""coordinates"": [[2.368742464268541, 48.88357327133696]], ""type"": ""MultiPoint""}","48.88357327133696,2.368742464268541",2.368742464268541,48.88357327133696
171,SANISETTE,,5  RUE DE MAZAGRAN,75010,24h/24h,Oui,Non,,"{""coordinates"": [[2.351378014817505, 48.87049160141798]], ""type"": ""MultiPoint""}","48.87049160141798,2.351378014817505",2.351378014817505,48.87049160141798
172,SANISETTE,,opposé au 16 PLACE DE LA NATION,75012,24h/24h,Oui,Non,,"{""coordinates"": [[2.395482550580248, 48.84744480307578]], ""type"": ""MultiPoint""}","48.84744480307578,2.395482550580248",2.395482550580248,48.84744480307578
173,SANISETTE,,opposé au 8 AVENUE DE LA PORTE DE CHATILLON,75014,6h/22h,Oui,Non,,"{""coordinates"": [[2.318181171738439, 48.82384501587049]], ""type"": ""MultiPoint""}","48.82384501587049,2.318181171738439",2.318181171738439,48.82384501587049
174,SANISETTE,,face au 2 AVENUE EMILE ZOLA,75015,24h/24h,Oui,Non,,"{""coordinates"": [[2.277628065658754, 48.846243467271094]], ""type"": ""MultiPoint""}","48.846243467271094,2.277628065658754",2.277628065658754,48.846243467271094
175,SANISETTE,,face au 38 AVENUE RAPHAEL,75016,24h/24h,Oui,Non,,"{""coordinates"": [[2.266699031575164, 48.85719279757156]], ""type"": ""MultiPoint""}","48.85719279757156,2.266699031575164",2.266699031575164,48.85719279757156
176,SANISETTE,,face au 1 AVENUE EMILE ET ARMAND MASSARD,75017,6h/22h,Oui,Non,,"{""coordinates"": [[2.297570046469314, 48.88888267432093]], ""type"": ""MultiPoint""}","48.88888267432093,2.297570046469314",2.297570046469314,48.88888267432093
177,SANISETTE,,25  AVENUE DE CLICHY,75017,6h/22h,Oui,Non,,"{""coordinates"": [[2.326343623788707, 48.88565931519143]], ""type"": ""MultiPoint""}","48.88565931519143,2.326343623788707",2.326343623788707,48.88565931519143
178,SANISETTE,,face au 118 BOULEVARD DE CLICHY,75018,24h/24h,Oui,Non,,"{""coordinates"": [[2.330274997441431, 48.8843823956645]], ""type"": ""MultiPoint""}","48.8843823956645,2.330274997441431",2.330274997441431,48.8843823956645
179,SANISETTE,,87  RUE DE LA CHAPELLE,75018,6h/22h,Oui,Non,,"{""coordinates"": [[2.358915646050675, 48.89763161180878]], ""type"": ""MultiPoint""}","48.89763161180878,2.358915646050675",2.358915646050675,48.89763161180878
180,SANISETTE,,face au 51 PLACE ALBERT KAHN,75018,6h/22h,Oui,Non,,"{""coordinates"": [[2.3460006044594532, 48.895774734607485]], ""type"": ""MultiPoint""}","48.895774734607485,2.3460006044594532",2.3460006044594532,48.895774734607485
181,SANISETTE,,29  AVENUE MATHURIN MOREAU,75019,6h/22h,Oui,Non,,"{""coordinates"": [[2.373949704867119, 48.87844763612634]], ""type"": ""MultiPoint""}","48.87844763612634,2.373949704867119",2.373949704867119,48.87844763612634
182,SANISETTE,,12  AVENUE DU PROFESSEUR ANDRE LEMIERE,75020,6h/22h,Oui,Non,,"{""coordinates"": [[2.415233912585556, 48.85532756366961]], ""type"": ""MultiPoint""}","48.85532756366961,2.415233912585556",2.415233912585556,48.85532756366961
183,SANISETTE,,64  RUE DU VOLGA,75020,6h/22h,Oui,Non,,"{""coordinates"": [[2.408988707402559, 48.85271966367163]], ""type"": ""MultiPoint""}","48.85271966367163,2.408988707402559",2.408988707402559,48.85271966367163
184,SANISETTE,,17  AVENUE VICTORIA,75001,24h/24h,Oui,Non,,"{""coordinates"": [[2.346535672660024, 48.857970439927115]], ""type"": ""MultiPoint""}","48.857970439927115,2.346535672660024",2.346535672660024,48.857970439927115
185,SANISETTE,,109  BOULEVARD DE SEBASTOPOL,75002,6h/22h,Oui,Non,,"{""coordinates"": [[2.352726650613073, 48.86681987649092]], ""type"": ""MultiPoint""}","48.86681987649092,2.352726650613073",2.352726650613073,48.86681987649092
186,SANISETTE,,RUE D ARCOLE,75004,24h/24h,Oui,Non,,"{""coordinates"": [[2.3492432036278, 48.853812057284806]], ""type"": ""MultiPoint""}","48.853812057284806,2.3492432036278",2.3492432036278,48.853812057284806
187,SANISETTE,,face au 75 bis RUE MONGE,75005,24h/24h,Oui,Non,,"{""coordinates"": [[2.35207298397874, 48.84312297015192]], ""type"": ""MultiPoint""}","48.84312297015192,2.35207298397874",2.35207298397874,48.84312297015192
188,SANISETTE,,CHAMPS DE MARS avenue GENERAL FERRIE,75007,6h/22h,Oui,Non,,"{""coordinates"": [[2.296943316091291, 48.85718239169635]], ""type"": ""MultiPoint""}","48.85718239169635,2.296943316091291",2.296943316091291,48.85718239169635
189,TOILETTES,,SQUARE D'ESTIENNE D'ORVES,75009,Voir fiche équipement,Non,Non,https://www.paris.fr/equipements/square-d-estienne-d-orves-2472,"{""coordinates"": [[2.331288524740739, 48.87684278657475]], ""type"": ""MultiPoint""}","48.87684278657475,2.331288524740739",2.331288524740739,48.87684278657475
190,TOILETTES,,SQUARE ALEX BISCARRE,75009,Voir fiche équipement,Non,Non,https://www.paris.fr/equipements/square-alex-biscarre-2464,"{""coordinates"": [[2.336728381553657, 48.87858749857325]], ""type"": ""MultiPoint""}","48.87858749857325,2.336728381553657",2.336728381553657,48.87858749857325
191,TOILETTES,,SQUARE JULIETTE DODU,75010,Voir fiche équipement,Non,Non,https://www.paris.fr/equipements/square-juliette-dodu-2836,"{""coordinates"": [[2.369380499264761, 48.875669096203]], ""type"": ""MultiPoint""}","48.875669096203,2.369380499264761",2.369380499264761,48.875669096203
192,TOILETTES,,SQUARE TROUSSEAU,75012,Voir fiche équipement,Oui,Non,https://www.paris.fr/equipements/square-trousseau-2576,"{""coordinates"": [[2.376966221720433, 48.85002192132091]], ""type"": ""MultiPoint""}","48.85002192132091,2.376966221720433",2.376966221720433,48.85002192132091
193,TOILETTES,,BOIS DE BOULOGNE - JARDIN DU PRE CATELAN,75016,Voir fiche équipement,Oui,Non,https://www.paris.fr/equipements/parc-de-bagatelle-1808,"{""coordinates"": [[2.2523240882300373, 48.865617429829534]], ""type"": ""MultiPoint""}","48.865617429829534,2.2523240882300373",2.2523240882300373,48.865617429829534
194,TOILETTES,,SQUARE SAINTE-ODILE,75017,Voir fiche équipement,Non,Non,https://www.paris.fr/equipements/square-sainte-odile-2642,"{""coordinates"": [[2.29358154028354, 48.88785096993109]], ""type"": ""MultiPoint""}","48.88785096993109,2.29358154028354",2.29358154028354,48.88785096993109
195,TOILETTES,,SQUARE LOUIS XIII,75004,Voir fiche équipement,Oui,Non,https://www.paris.fr/equipements/square-louis-xiii-36,"{""coordinates"": [[2.365276631815183, 48.85522108368081]], ""type"": ""MultiPoint""}","48.85522108368081,2.365276631815183",2.365276631815183,48.85522108368081
196,TOILETTES,,PARC DE PASSY,75016,Voir fiche équipement,Oui,Non,https://www.paris.fr/equipements/parc-de-passy-2625,"{""coordinates"": [[2.2829801125761, 48.8553646405576]], ""type"": ""MultiPoint""}","48.8553646405576,2.2829801125761",2.2829801125761,48.8553646405576
197,TOILETTES,,JARDIN DU 122 RUE DES POISSONNIERS,75018,Voir fiche équipement,Non,Non,https://www.paris.fr/equipements/jardin-122-rue-des-poissonniers-17468,"{""coordinates"": [[2.353273863532805, 48.89500623115916]], ""type"": ""MultiPoint""}","48.89500623115916,2.353273863532805",2.353273863532805,48.89500623115916
198,SANISETTE,,2  RUE DES ECLUSES SAINT MARTIN,75010,6h/1h,Oui,Non,,"{""coordinates"": [[2.368177603725198, 48.876238731757724]], ""type"": ""MultiPoint""}","48.876238731757724,2.368177603725198",2.368177603725198,48.876238731757724
199,SANISETTE,,face au 48  BOULEVARD VOLTAIRE,75011,6h/22h,Oui,Non,,"{""coordinates"": [[2.371039582240022, 48.86338089367277]], ""type"": ""MultiPoint""}","48.86338089367277,2.371039582240022",2.371039582240022,48.86338089367277
200,SANISETTE,,6  AVENUE COURTELINE,75012,6h/22h,Oui,Non,,"{""coordinates"": [[2.411265473129769, 48.844093326334296]], ""type"": ""MultiPoint""}","48.844093326334296,2.411265473129769",2.411265473129769,48.844093326334296
201,SANISETTE,,SQUARE EMILE COHL,75012,6h/22h,Oui,Non,,"{""coordinates"": [[2.409895752461853, 48.84199920626392]], ""type"": ""MultiPoint""}","48.84199920626392,2.409895752461853",2.409895752461853,48.84199920626392
202,SANISETTE,,face au 18 AVENUE DU GENERAL LECLERC,75014,6h/1h,Oui,Non,,"{""coordinates"": [[2.330940750030464, 48.83234245020399]], ""type"": ""MultiPoint""}","48.83234245020399,2.330940750030464",2.330940750030464,48.83234245020399
203,SANISETTE,,70  BOULEVARD JOURDAN,75014,6h/22h,Oui,Non,,"{""coordinates"": [[2.328856513435701, 48.82262985130539]], ""type"": ""MultiPoint""}","48.82262985130539,2.328856513435701",2.328856513435701,48.82262985130539
204,SANISETTE,,face au 19  RUE LEON LHERMITTE,75015,6h/22h,Oui,Non,,"{""coordinates"": [[2.297810540412148, 48.84286484165984]], ""type"": ""MultiPoint""}","48.84286484165984,2.297810540412148",2.297810540412148,48.84286484165984
205,SANISETTE,,1  PLACE VIOLET,75015,6h/22h,Oui,Non,,"{""coordinates"": [[2.290479546332364, 48.84479730746867]], ""type"": ""MultiPoint""}","48.84479730746867,2.290479546332364",2.290479546332364,48.84479730746867
206,SANISETTE,,139  RUE DE L ABBE GROULT,75015,6h/22h,Oui,Non,,"{""coordinates"": [[2.302595746538933, 48.83566847382636]], ""type"": ""MultiPoint""}","48.83566847382636,2.302595746538933",2.302595746538933,48.83566847382636
207,SANISETTE,,QUAI BRANLY,75015,24h/24h,Oui,Non,,"{""coordinates"": [[2.28986840169592, 48.85553274383494]], ""type"": ""MultiPoint""}","48.85553274383494,2.28986840169592",2.28986840169592,48.85553274383494
208,SANISETTE,,224  AVENUE DE VERSAILLES,75016,6h/22h,Oui,Non,,"{""coordinates"": [[2.258619846101936, 48.83839708065923]], ""type"": ""MultiPoint""}","48.83839708065923,2.258619846101936",2.258619846101936,48.83839708065923
209,SANISETTE,,37  RUE MIRABEAU,75016,6h/22h,Oui,Non,,"{""coordinates"": [[2.2690815555105672, 48.84593889811058]], ""type"": ""MultiPoint""}","48.84593889811058,2.2690815555105672",2.2690815555105672,48.84593889811058
210,SANISETTE,,face au 2 AVENUE DE WAGRAM,75017,24h/24h,Oui,Non,,"{""coordinates"": [[2.295697431651681, 48.87494771234444]], ""type"": ""MultiPoint""}","48.87494771234444,2.295697431651681",2.295697431651681,48.87494771234444
211,SANISETTE,,2  RUE MONTCALM,75018,6h/22h,Oui,Non,,"{""coordinates"": [[2.335221479388062, 48.89178882470802]], ""type"": ""MultiPoint""}","48.89178882470802,2.335221479388062",2.335221479388062,48.89178882470802
212,SANISETTE,,opposé au 94 RUE JEAN HENRI FABRE,75018,6h/22h,Oui,Non,,"{""coordinates"": [[2.335537439363272, 48.901061167312136]], ""type"": ""MultiPoint""}","48.901061167312136,2.335537439363272",2.335537439363272,48.901061167312136
213,SANISETTE,,face au 5 AVENUE DE LAUMIERE,75019,6h/22h,Oui,Non,,"{""coordinates"": [[2.381421987092033, 48.88302878255986]], ""type"": ""MultiPoint""}","48.88302878255986,2.381421987092033",2.381421987092033,48.88302878255986
214,SANISETTE,,177  AVENUE DE FLANDRE,75019,6h/22h,Oui,Non,,"{""coordinates"": [[2.382026907945858, 48.89474105377586]], ""type"": ""MultiPoint""}","48.89474105377586,2.382026907945858",2.382026907945858,48.89474105377586
215,SANISETTE,,213  AVENUE JEAN JAURES,75019,24h/24h,Oui,Non,,"{""coordinates"": [[2.393095759882974, 48.888951442257486]], ""type"": ""MultiPoint""}","48.888951442257486,2.393095759882974",2.393095759882974,48.888951442257486
216,SANISETTE,,12  RUE REBEVAL,75019,6h/22h,Oui,Non,,"{""coordinates"": [[2.376382294517342, 48.87407067949223]], ""type"": ""MultiPoint""}","48.87407067949223,2.376382294517342",2.376382294517342,48.87407067949223
217,SANISETTE,,face au 73 BOULEVARD SAINT MICHEL,75006,24h/24h,Oui,Non,,"{""coordinates"": [[2.340044296677426, 48.84612923935423]], ""type"": ""MultiPoint""}","48.84612923935423,2.340044296677426",2.340044296677426,48.84612923935423
218,SANISETTE,,17  RUE DU FOUR,75006,24h/24h,Oui,Non,,"{""coordinates"": [[2.334590272454289, 48.85272198682075]], ""type"": ""MultiPoint""}","48.85272198682075,2.334590272454289",2.334590272454289,48.85272198682075
219,SANISETTE,,COURS LA REINE,75008,24h/24h,Oui,Non,,"{""coordinates"": [[2.318088034663091, 48.86514883797138]], ""type"": ""MultiPoint""}","48.86514883797138,2.318088034663091",2.318088034663091,48.86514883797138
220,SANISETTE,,opposé au 44 AVENUE GABRIEL,75008,24h/24h,Oui,Non,,"{""coordinates"": [[2.31276020722228, 48.869470956238764]], ""type"": ""MultiPoint""}","48.869470956238764,2.31276020722228",2.31276020722228,48.869470956238764
221,SANISETTE,,face au 19 AVENUE DE FRIEDLAND,75008,24h/24h,Oui,Non,,"{""coordinates"": [[2.302361992982482, 48.874613485017605]], ""type"": ""MultiPoint""}","48.874613485017605,2.302361992982482",2.302361992982482,48.874613485017605
222,TOILETTES,,JARDIN TINO ROSSI - MUSEE DE LA SCULPTURE EN PLEIN AIR,75005,Voir fiche équipement,Non,Non,https://www.paris.fr/equipements/jardin-tino-rossi-1786,"{""coordinates"": [[2.359133660382075, 48.84824348066088]], ""type"": ""MultiPoint""}","48.84824348066088,2.359133660382075",2.359133660382075,48.84824348066088
223,URINOIR FEMME,,JARDIN TINO ROSSI - MUSEE DE LA SCULPTURE EN PLEIN AIR,75005,Voir fiche équipement,Non,Non,https://www.paris.fr/equipements/jardin-tino-rossi-1786,"{""coordinates"": [[2.359059981372502, 48.848303082096535]], ""type"": ""MultiPoint""}","48.848303082096535,2.359059981372502",2.359059981372502,48.848303082096535
224,TOILETTES,,SQUARE PIERRE-ADRIEN DALPAYRAT,75015,Voir fiche équipement,Oui,Non,https://www.paris.fr/equipements/jardin-pierre-adrien-dalpayrat-2494,"{""coordinates"": [[2.313031069862712, 48.83776398633028]], ""type"": ""MultiPoint""}","48.83776398633028,2.313031069862712",2.313031069862712,48.83776398633028
225,TOILETTES,,SQUARE VAN VOLLENHOVEN,75012,Voir fiche équipement,Non,Non,https://www.paris.fr/equipements/square-van-vollenhoven-2593,"{""coordinates"": [[2.406786549937932, 48.834706801799896]], ""type"": ""MultiPoint""}","48.834706801799896,2.406786549937932",2.406786549937932,48.834706801799896
226,TOILETTES,,SQUARE EDOUARD VAILLANT,75020,Voir fiche équipement,Non,Non,https://www.paris.fr/equipements/square-edouard-vaillant-2691,"{""coordinates"": [[2.3999211355178423, 48.86624979612694]], ""type"": ""MultiPoint""}","48.86624979612694,2.3999211355178423",2.3999211355178423,48.86624979612694
227,TOILETTES,,SQUARE SARAH BERNHARDT,75020,Voir fiche équipement,Non,Non,https://www.paris.fr/equipements/square-sarah-bernhardt-1774,"{""coordinates"": [[2.403701838756763, 48.849620045031294]], ""type"": ""MultiPoint""}","48.849620045031294,2.403701838756763",2.403701838756763,48.849620045031294
228,TOILETTES,,SQUARE DES SAINTS-SIMONIENS - MENILMONTANT,75020,Voir fiche équipement,Non,Non,https://www.paris.fr/equipements/square-des-saint-simoniens-2694,"{""coordinates"": [[2.396969579365494, 48.8708534006859]], ""type"": ""MultiPoint""}","48.8708534006859,2.396969579365494",2.396969579365494,48.8708534006859
229,SANISETTE,,PLACE DE LA BASTILLE,75011,6h/22h,Oui,Non,,"{""coordinates"": [[2.370072634439651, 48.85331060980803]], ""type"": ""MultiPoint""}","48.85331060980803,2.370072634439651",2.370072634439651,48.85331060980803
230,SANISETTE,,82  AVENUE DE LA REPUBLIQUE,75011,6h/1h,Oui,Non,,"{""coordinates"": [[2.37952312138287, 48.86424208661518]], ""type"": ""MultiPoint""}","48.86424208661518,2.37952312138287",2.37952312138287,48.86424208661518
231,SANISETTE,,57  BOULEVARD DIDEROT,75012,6h/22h,Oui,Non,,"{""coordinates"": [[2.384207324504984, 48.84713481514029]], ""type"": ""MultiPoint""}","48.84713481514029,2.384207324504984",2.384207324504984,48.84713481514029
232,SANISETTE,,26  BOULEVARD DE REUILLY,75012,6h/22h,Oui,Non,,"{""coordinates"": [[2.392302587363353, 48.83916534421364]], ""type"": ""MultiPoint""}","48.83916534421364,2.392302587363353",2.392302587363353,48.83916534421364
233,SANISETTE,,53  BOULEVARD SAINT MARCEL,75013,6h/22h,Oui,Non,,"{""coordinates"": [[2.355645972582187, 48.837911595474374]], ""type"": ""MultiPoint""}","48.837911595474374,2.355645972582187",2.355645972582187,48.837911595474374
234,SANISETTE,,1  RUE EMILE LEVASSOR,75013,6h/22h,Oui,Non,,"{""coordinates"": [[2.369013887547498, 48.82124040430335]], ""type"": ""MultiPoint""}","48.82124040430335,2.369013887547498",2.369013887547498,48.82124040430335
235,SANISETTE,,103  BOULEVARD BRUNE,75014,6h/22h,Oui,Non,,"{""coordinates"": [[2.315053624154728, 48.825685892245296]], ""type"": ""MultiPoint""}","48.825685892245296,2.315053624154728",2.315053624154728,48.825685892245296
236,SANISETTE,,21  RUE DE GERGOVIE,75014,6h/22h,Oui,Non,,"{""coordinates"": [[2.314561721364447, 48.833925435692954]], ""type"": ""MultiPoint""}","48.833925435692954,2.314561721364447",2.314561721364447,48.833925435692954
237,SANISETTE,,10  AVENUE DU GENERAL LECLERC,75014,24h/24h,Oui,Non,,"{""coordinates"": [[2.331187020094139, 48.83301508320707]], ""type"": ""MultiPoint""}","48.83301508320707,2.331187020094139",2.331187020094139,48.83301508320707
238,SANISETTE,,AVENUE DE SUFFREN,75015,6h/22h,Oui,Non,,"{""coordinates"": [[2.308909490180235, 48.846023120096504]], ""type"": ""MultiPoint""}","48.846023120096504,2.308909490180235",2.308909490180235,48.846023120096504
239,SANISETTE,,face au 6 RUE DESNOUETTES,75015,24h/24h,Oui,Non,,"{""coordinates"": [[2.293417776948328, 48.83604524670522]], ""type"": ""MultiPoint""}","48.83604524670522,2.293417776948328",2.293417776948328,48.83604524670522
240,SANISETTE,,132  BOULEVARD BESSIERES,75017,6h/22h,Oui,Non,,"{""coordinates"": [[2.314293551735199, 48.894846104664346]], ""type"": ""MultiPoint""}","48.894846104664346,2.314293551735199",2.314293551735199,48.894846104664346
241,SANISETTE,,36  RUE DE LA CHARBONNIERE,75018,6h/22h,Oui,Non,,"{""coordinates"": [[2.352186422605598, 48.88410387025656]], ""type"": ""MultiPoint""}","48.88410387025656,2.352186422605598",2.352186422605598,48.88410387025656
242,SANISETTE,,opposé au 17 RUE RENE BINET,75018,24h/24h,Oui,Non,,"{""coordinates"": [[2.340530389340114, 48.89928991429743]], ""type"": ""MultiPoint""}","48.89928991429743,2.340530389340114",2.340530389340114,48.89928991429743
243,SANISETTE,,1  RUE SAINT BRUNO,75018,24h/24h,Oui,Non,,"{""coordinates"": [[2.356270510591299, 48.88595754102246]], ""type"": ""MultiPoint""}","48.88595754102246,2.356270510591299",2.356270510591299,48.88595754102246
244,SANISETTE,,135  RUE DAMREMONT,75018,24h/24h,Oui,Non,,"{""coordinates"": [[2.338269683499474, 48.8965489204548]], ""type"": ""MultiPoint""}","48.8965489204548,2.338269683499474",2.338269683499474,48.8965489204548
245,SANISETTE,,1  RUE DE LA BONNE,75018,6h/22h,Oui,Non,,"{""coordinates"": [[2.343545156427324, 48.88736179846098]], ""type"": ""MultiPoint""}","48.88736179846098,2.343545156427324",2.343545156427324,48.88736179846098
246,SANISETTE,,26 bis AVENUE CORENTIN CARIOU,75019,24h/24h,Oui,Non,,"{""coordinates"": [[2.385653355685078, 48.89731268179251]], ""type"": ""MultiPoint""}","48.89731268179251,2.385653355685078",2.385653355685078,48.89731268179251
247,SANISETTE,,6  PLACE DE LA PORTE DE BAGNOLET,75020,24h/24h,Oui,Non,,"{""coordinates"": [[2.408985779271119, 48.86412097368338]], ""type"": ""MultiPoint""}","48.86412097368338,2.408985779271119",2.408985779271119,48.86412097368338
248,SANISETTE,,8  RUE D ARCOLE,75004,6h/22h,Oui,Non,,"{""coordinates"": [[2.349398891032556, 48.8540198901374]], ""type"": ""MultiPoint""}","48.8540198901374,2.349398891032556",2.349398891032556,48.8540198901374
249,SANISETTE,,51  BOULEVARD DE ROCHECHOUART,75009,24h/24h,Oui,Non,,"{""coordinates"": [[2.341432909012633, 48.882316150207735]], ""type"": ""MultiPoint""}","48.882316150207735,2.341432909012633",2.341432909012633,48.882316150207735
250,SANISETTE,,face au 81 QUAI DE VALMY,75010,24h/24h,Oui,Non,,"{""coordinates"": [[2.364073917787641, 48.87258118624698]], ""type"": ""MultiPoint""}","48.87258118624698,2.364073917787641",2.364073917787641,48.87258118624698
251,TOILETTES,,SQUARE RUES BELLEVILLE - TELEGRAPHE,75020,Voir fiche équipement,Non,Non,https://www.paris.fr/equipements/square-belleville-telegraphe-2724,"{""coordinates"": [[2.399293408514616, 48.875194891123265]], ""type"": ""MultiPoint""}","48.875194891123265,2.399293408514616",2.399293408514616,48.875194891123265
252,TOILETTES,,SQUARE DE LA PLACE DE LA REUNION,75020,Voir fiche équipement,Non,Non,https://www.paris.fr/equipements/square-de-la-place-de-la-reunion-2705,"{""coordinates"": [[2.401508681870862, 48.85581626348992]], ""type"": ""MultiPoint""}","48.85581626348992,2.401508681870862",2.401508681870862,48.85581626348992
253,TOILETTES,,SQUARE HENRI CADIOU,75013,Voir fiche équipement,Non,Non,https://www.paris.fr/equipements/square-henri-cadiou-2529,"{""coordinates"": [[2.3425014153332793, 48.83447425994399]], ""type"": ""MultiPoint""}","48.83447425994399,2.3425014153332793",2.3425014153332793,48.83447425994399
254,TOILETTES,,PARC MONTSOURIS,75014,Voir fiche équipement,Oui,Non,https://www.paris.fr/equipements/jardin-et-aire-de-jeux-de-la-zac-alesia-montsouris-2867,"{""coordinates"": [[2.336591567464136, 48.82227702606083]], ""type"": ""MultiPoint""}","48.82227702606083,2.336591567464136",2.336591567464136,48.82227702606083
255,TOILETTES,,SQUARE LEON SERPOLLET,75018,Voir fiche équipement,Oui,Non,https://www.paris.fr/equipements/square-leon-serpollet-2665,"{""coordinates"": [[2.339101315132648, 48.89225644637532]], ""type"": ""MultiPoint""}","48.89225644637532,2.339101315132648",2.339101315132648,48.89225644637532
256,TOILETTES,,BOIS DE VINCENNES - PARC FLORAL DE PARIS - PINEDE,75012,Voir fiche équipement,Oui,Oui,https://www.paris.fr/equipements/parc-floral-de-paris-1,"{""coordinates"": [[2.4446432672223812, 48.83825700612516]], ""type"": ""MultiPoint""}","48.83825700612516,2.4446432672223812",2.4446432672223812,48.83825700612516
257,SANISETTE,,29  RUE ROLAND BARTHES,75012,24h/24h,Oui,Non,,"{""coordinates"": [[2.3774441851341352, 48.8444926838465]], ""type"": ""MultiPoint""}","48.8444926838465,2.3774441851341352",2.3774441851341352,48.8444926838465
258,SANISETTE,,face au 98 QUAI DE LA RAPEE,75012,24h/24h,Oui,Non,,"{""coordinates"": [[2.367027805657553, 48.84600859329504]], ""type"": ""MultiPoint""}","48.84600859329504,2.367027805657553",2.367027805657553,48.84600859329504
259,SANISETTE,,face au 40 AVENUE REILLE,75014,24h/24h,Oui,Non,,"{""coordinates"": [[2.338538930462, 48.82444207894634]], ""type"": ""MultiPoint""}","48.82444207894634,2.338538930462",2.338538930462,48.82444207894634
260,SANISETTE,,98  BOULEVARD ARAGO,75014,6h/1h,Oui,Non,,"{""coordinates"": [[2.336803885060248, 48.834735549474466]], ""type"": ""MultiPoint""}","48.834735549474466,2.336803885060248",2.336803885060248,48.834735549474466
261,SANISETTE,,161  BOULEVARD BRUNE,75014,6h/22h,Oui,Non,,"{""coordinates"": [[2.321116922699177, 48.82434142990772]], ""type"": ""MultiPoint""}","48.82434142990772,2.321116922699177",2.321116922699177,48.82434142990772
262,SANISETTE,,92102  RUE BLOMET,75015,6h/22h,Oui,Non,,"{""coordinates"": [[2.300280980817689, 48.84090598651907]], ""type"": ""MultiPoint""}","48.84090598651907,2.300280980817689",2.300280980817689,48.84090598651907
263,SANISETTE,,face au 7 RUE LA QUINTINIE,75015,24h/24h,Oui,Non,,"{""coordinates"": [[2.306332691603664, 48.83923304249819]], ""type"": ""MultiPoint""}","48.83923304249819,2.306332691603664",2.306332691603664,48.83923304249819
264,SANISETTE,,PLACE DE LA PORTE D AUTEUIL,75016,24h/24h,Oui,Non,,"{""coordinates"": [[2.257177590169218, 48.84844378816905]], ""type"": ""MultiPoint""}","48.84844378816905,2.257177590169218",2.257177590169218,48.84844378816905
265,SANISETTE,,2  SQUARE LAMARTINE,75016,6h/22h,Oui,Non,,"{""coordinates"": [[2.275158169830334, 48.86517142314817]], ""type"": ""MultiPoint""}","48.86517142314817,2.275158169830334",2.275158169830334,48.86517142314817
266,SANISETTE,,96 ter RUE LEMERCIER,75017,6h/22h,Oui,Non,,"{""coordinates"": [[2.318866697645444, 48.88942282181049]], ""type"": ""MultiPoint""}","48.88942282181049,2.318866697645444",2.318866697645444,48.88942282181049
267,SANISETTE,,51  BOULEVARD GOUVION SAINT CYR,75017,6h/22h,Oui,Non,,"{""coordinates"": [[2.286017525668917, 48.88188419300001]], ""type"": ""MultiPoint""}","48.88188419300001,2.286017525668917",2.286017525668917,48.88188419300001
268,SANISETTE,,PLACE DE LA CHAPELLE,75018,6h/22h,Oui,Non,,"{""coordinates"": [[2.359098476818926, 48.88464490930497]], ""type"": ""MultiPoint""}","48.88464490930497,2.359098476818926",2.359098476818926,48.88464490930497
269,SANISETTE,,AVENUE DE LA PORTE DE CLIGNANCOURT,75018,6h/22h,Oui,Non,,"{""coordinates"": [[2.344441605047737, 48.9011330331849]], ""type"": ""MultiPoint""}","48.9011330331849,2.344441605047737",2.344441605047737,48.9011330331849
270,SANISETTE,,face au 90 BOULEVARD DE LA CHAPELLE,75018,24h/24h,Oui,Non,,"{""coordinates"": [[2.353429267194319, 48.884078653316436]], ""type"": ""MultiPoint""}","48.884078653316436,2.353429267194319",2.353429267194319,48.884078653316436
271,SANISETTE,,154  RUE D AUBERVILLIERS,75019,6h/22h,Oui,Non,,"{""coordinates"": [[2.369855639904201, 48.893384136510086]], ""type"": ""MultiPoint""}","48.893384136510086,2.369855639904201",2.369855639904201,48.893384136510086
272,SANISETTE,,2  RUE DE JOINVILLE,75019,6h/22h,Oui,Non,,"{""coordinates"": [[2.380702647901921, 48.889477761529356]], ""type"": ""MultiPoint""}","48.889477761529356,2.380702647901921",2.380702647901921,48.889477761529356
273,SANISETTE,,213  RUE DE BELLEVILLE,75019,6h/22h,Oui,Non,,"{""coordinates"": [[2.394776616457134, 48.87544598661789]], ""type"": ""MultiPoint""}","48.87544598661789,2.394776616457134",2.394776616457134,48.87544598661789
274,SANISETTE,,1  RUE DE BUZENVAL,75020,6h/22h,Oui,Non,,"{""coordinates"": [[2.402583928887361, 48.84910044336136]], ""type"": ""MultiPoint""}","48.84910044336136,2.402583928887361",2.402583928887361,48.84910044336136
275,SANISETTE,,9  COURS DE VINCENNES,75020,6h/22h,Oui,Non,,"{""coordinates"": [[2.400031592781938, 48.84826364818255]], ""type"": ""MultiPoint""}","48.84826364818255,2.400031592781938",2.400031592781938,48.84826364818255
276,SANISETTE,,157  RUE DE MENILMONTANT,75020,6h/22h,Oui,Non,,"{""coordinates"": [[2.39820179219435, 48.87058588945123]], ""type"": ""MultiPoint""}","48.87058588945123,2.39820179219435",2.39820179219435,48.87058588945123
277,SANISETTE,,55  BOULEVARD DE SEBASTOPOL,75001,6h/22h,Oui,Non,,"{""coordinates"": [[2.350203080907802, 48.862313183032356]], ""type"": ""MultiPoint""}","48.862313183032356,2.350203080907802",2.350203080907802,48.862313183032356
278,SANISETTE,,39  PLACE DES DEUX ECUS,75001,24h/24h,Oui,Non,,"{""coordinates"": [[2.341836175822233, 48.863156681649215]], ""type"": ""MultiPoint""}","48.863156681649215,2.341836175822233",2.341836175822233,48.863156681649215
279,SANISETTE,,15  BOULEVARD SAINT DENIS,75002,24h/24h,Oui,Non,,"{""coordinates"": [[2.353502085687314, 48.869408298985206]], ""type"": ""MultiPoint""}","48.869408298985206,2.353502085687314",2.353502085687314,48.869408298985206
280,SANISETTE,,115  RUE SAINT MARTIN,75004,24h/24h,Oui,Non,,"{""coordinates"": [[2.351171125654263, 48.86052384157859]], ""type"": ""MultiPoint""}","48.86052384157859,2.351171125654263",2.351171125654263,48.86052384157859
281,SANISETTE,,78  BOULEVARD SAINT MARCEL,75005,6h/1h,Oui,Non,,"{""coordinates"": [[2.353543641100616, 48.83741847058166]], ""type"": ""MultiPoint""}","48.83741847058166,2.353543641100616",2.353543641100616,48.83741847058166
282,SANISETTE,,51  BOULEVARD DE COURCELLES,75008,6h/22h,Oui,Non,,"{""coordinates"": [[2.304028164576791, 48.879227198587344]], ""type"": ""MultiPoint""}","48.879227198587344,2.304028164576791",2.304028164576791,48.879227198587344
283,SANISETTE,,opposé au 168 BOULEVARD DE MAGENTA,75009,6h/22h,Oui,Non,,"{""coordinates"": [[2.349610003378711, 48.883270091603826]], ""type"": ""MultiPoint""}","48.883270091603826,2.349610003378711",2.349610003378711,48.883270091603826
284,SANISETTE,,RUE DU FAUBOURG SAINT MARTIN,75010,24h/24h,Oui,Non,,"{""coordinates"": [[2.360463576080204, 48.875749513351415]], ""type"": ""MultiPoint""}","48.875749513351415,2.360463576080204",2.360463576080204,48.875749513351415
285,TOILETTES,,JARDIN VILLEMIN,75010,Voir fiche équipement,Non,Oui,https://www.paris.fr/equipements/jardin-villemin-1798,"{""coordinates"": [[2.360586587773963, 48.87495187562732]], ""type"": ""MultiPoint""}","48.87495187562732,2.360586587773963",2.360586587773963,48.87495187562732
286,TOILETTES,,JARDIN DE LA GARE DE CHARONNE,75020,Voir fiche équipement,Non,Non,https://www.paris.fr/equipements/jardin-de-la-gare-de-charonne-2693,"{""coordinates"": [[2.409416942955489, 48.85201539306615]], ""type"": ""MultiPoint""}","48.85201539306615,2.409416942955489",2.409416942955489,48.85201539306615
287,TOILETTES,,BOIS DE VINCENNES - PARC FLORAL DE PARIS - CHATEAU,75012,Voir fiche équipement,Oui,Oui,https://www.paris.fr/equipements/parc-floral-de-paris-1,"{""coordinates"": [[2.440768213104734, 48.8399284317324]], ""type"": ""MultiPoint""}","48.8399284317324,2.440768213104734",2.440768213104734,48.8399284317324
288,TOILETTES,,SQUARE EMMANUEL FLEURY,75020,Voir fiche équipement,Non,Oui,https://www.paris.fr/equipements/square-emmanuel-fleury-2720,"{""coordinates"": [[2.411264956080894, 48.8708129956025]], ""type"": ""MultiPoint""}","48.8708129956025,2.411264956080894",2.411264956080894,48.8708129956025
289,TOILETTES,,JARDIN PAUL DIDIER,75017,Voir fiche équipement,Non,Non,https://www.paris.fr/equipements/jardin-paul-didier-ex-colonel-manhes-2819,"{""coordinates"": [[2.320485641136297, 48.89546130163387]], ""type"": ""MultiPoint""}","48.89546130163387,2.320485641136297",2.320485641136297,48.89546130163387
290,SANISETTE,,79  BOULEVARD KELLERMANN,75013,6h/22h,Oui,Non,,"{""coordinates"": [[2.347726932055576, 48.819969758397754]], ""type"": ""MultiPoint""}","48.819969758397754,2.347726932055576",2.347726932055576,48.819969758397754
291,SANISETTE,,face au 30 AVENUE REILLE,75014,24h/24h,Oui,Non,,"{""coordinates"": [[2.339488403872547, 48.82454102425052]], ""type"": ""MultiPoint""}","48.82454102425052,2.339488403872547",2.339488403872547,48.82454102425052
292,SANISETTE,,face au 36 RUE DIDOT,75014,24h/24h,Oui,Non,,"{""coordinates"": [[2.320178958056874, 48.831657967806095]], ""type"": ""MultiPoint""}","48.831657967806095,2.320178958056874",2.320178958056874,48.831657967806095
293,SANISETTE,,1  AVENUE RENE COTY,75014,6h/22h,Oui,Non,,"{""coordinates"": [[2.332917144300073, 48.83313899250652]], ""type"": ""MultiPoint""}","48.83313899250652,2.332917144300073",2.332917144300073,48.83313899250652
294,SANISETTE,,57  RUE DE LA CHAPELLE,75018,6h/22h,Oui,Non,,"{""coordinates"": [[2.358838883116348, 48.89508955698618]], ""type"": ""MultiPoint""}","48.89508955698618,2.358838883116348",2.358838883116348,48.89508955698618
295,SANISETTE,,BOULEVARD D ALGERIE,75019,6h/22h,Oui,Non,,"{""coordinates"": [[2.400408793867472, 48.880680241510866]], ""type"": ""MultiPoint""}","48.880680241510866,2.400408793867472",2.400408793867472,48.880680241510866
296,SANISETTE,,AVENUE DE LA PORTE BRUNET,75019,6h/22h,Oui,Non,,"{""coordinates"": [[2.397859680104272, 48.88389762041914]], ""type"": ""MultiPoint""}","48.88389762041914,2.397859680104272",2.397859680104272,48.88389762041914
297,SANISETTE,,37  BOULEVARD DES CAPUCINES,75002,6h/22h,Oui,Non,,"{""coordinates"": [[2.329345376568483, 48.870058233825205]], ""type"": ""MultiPoint""}","48.870058233825205,2.329345376568483",2.329345376568483,48.870058233825205
298,SANISETTE,,123  RUE SAINT ANTOINE,75004,24h/24h,Oui,Non,,"{""coordinates"": [[2.360419701884549, 48.85530319788792]], ""type"": ""MultiPoint""}","48.85530319788792,2.360419701884549",2.360419701884549,48.85530319788792
299,SANISETTE,,RUE DE L AVE MARIA,75004,6h/22h,Oui,Non,,"{""coordinates"": [[2.359582804553574, 48.85321055139778]], ""type"": ""MultiPoint""}","48.85321055139778,2.359582804553574",2.359582804553574,48.85321055139778
300,SANISETTE,,2  RUE MORNAY,75004,6h/22h,Oui,Non,,"{""coordinates"": [[2.366123193813519, 48.849474962211744]], ""type"": ""MultiPoint""}","48.849474962211744,2.366123193813519",2.366123193813519,48.849474962211744
301,SANISETTE,,9  BOULEVARD SAINT GERMAIN,75005,6h/22h,Oui,Non,,"{""coordinates"": [[2.354846182358385, 48.849330262603885]], ""type"": ""MultiPoint""}","48.849330262603885,2.354846182358385",2.354846182358385,48.849330262603885
302,SANISETTE,,2  PLACE JOFFRE,75007,24h/24h,Oui,Non,,"{""coordinates"": [[2.305083210870264, 48.854301176148155]], ""type"": ""MultiPoint""}","48.854301176148155,2.305083210870264",2.305083210870264,48.854301176148155
303,SANISETTE,,45  BOULEVARD DE ROCHECHOUART,75018,24h/24h,Oui,Non,,"{""coordinates"": [[2.343497799728155, 48.882709085896316]], ""type"": ""MultiPoint""}","48.882709085896316,2.343497799728155",2.343497799728155,48.882709085896316
304,TOILETTES,,SQUARE SAMUEL ROUSSEAU,75007,Voir fiche équipement,Oui,Non,https://www.paris.fr/equipements/square-samuel-rousseau-2467,"{""coordinates"": [[2.319582882629932, 48.85917224498334]], ""type"": ""MultiPoint""}","48.85917224498334,2.319582882629932",2.319582882629932,48.85917224498334
305,TOILETTES,,SQUARES DES ARENES DE LUTECE ET CAPITAN,75005,Voir fiche équipement,Non,Non,https://www.paris.fr/equipements/square-des-arenes-de-lutece-et-square-capitan-1760,"{""coordinates"": [[2.35324384799468, 48.845456222716194]], ""type"": ""MultiPoint""}","48.845456222716194,2.35324384799468",2.35324384799468,48.845456222716194
306,TOILETTES,,SQUARE PAUL GRIMAULT,75013,Voir fiche équipement,Non,Non,https://www.paris.fr/equipements/square-paul-grimault-2567,"{""coordinates"": [[2.34850913926846, 48.82302967451198]], ""type"": ""MultiPoint""}","48.82302967451198,2.34850913926846",2.34850913926846,48.82302967451198
307,TOILETTES,,SQUARE FERDINAND BRUNOT,75014,Voir fiche équipement,Non,Non,https://www.paris.fr/equipements/square-de-l-aspirant-dunand-2543,"{""coordinates"": [[2.32688024224376, 48.83229243383418]], ""type"": ""MultiPoint""}","48.83229243383418,2.32688024224376",2.32688024224376,48.83229243383418
308,TOILETTES,,SQUARE DU CHANOINE VIOLLET,75014,Voir fiche équipement,Non,Non,https://www.paris.fr/equipements/square-alberto-giacometti-2866,"{""coordinates"": [[2.320531761589162, 48.8313476109017]], ""type"": ""MultiPoint""}","48.8313476109017,2.320531761589162",2.320531761589162,48.8313476109017
309,TOILETTES,,JARDIN ATLANTIQUE,75015,Voir fiche équipement,Non,Non,https://www.paris.fr/equipements/jardin-atlantique-1775,"{""coordinates"": [[2.319685441900642, 48.83980953472804]], ""type"": ""MultiPoint""}","48.83980953472804,2.319685441900642",2.319685441900642,48.83980953472804
310,TOILETTES,,JARDIN CLAIRE MOTTE,75017,Voir fiche équipement,Non,Non,https://www.paris.fr/equipements/jardin-claire-motte-2820,"{""coordinates"": [[2.304142774509969, 48.89189723480619]], ""type"": ""MultiPoint""}","48.89189723480619,2.304142774509969",2.304142774509969,48.89189723480619
311,TOILETTES,,SQUARE DE LA RUE CHARLES HERMITE,75018,Voir fiche équipement,Oui,Non,https://www.paris.fr/equipements/square-charles-hermite-2648,"{""coordinates"": [[2.366573419652227, 48.89989642935981]], ""type"": ""MultiPoint""}","48.89989642935981,2.366573419652227",2.366573419652227,48.89989642935981
312,LAVATORY,,Avenue des Champs-Elysées,75008,Voir fiche équipement,Oui,Non,,"{""coordinates"": [[2.317089878279595, 48.867262574141115]], ""type"": ""MultiPoint""}","48.867262574141115,2.317089878279595",2.317089878279595,48.867262574141115
313,SANISETTE,,105  QUAI DE VALMY,75010,6h/22h,Oui,Non,,"{""coordinates"": [[2.362733834933867, 48.87459203532375]], ""type"": ""MultiPoint""}","48.87459203532375,2.362733834933867",2.362733834933867,48.87459203532375
314,SANISETTE,,164  BOULEVARD VOLTAIRE,75011,6h/22h,Oui,Non,,"{""coordinates"": [[2.38355339725316, 48.85564376523424]], ""type"": ""MultiPoint""}","48.85564376523424,2.38355339725316",2.38355339725316,48.85564376523424
315,SANISETTE,,133  BOULEVARD DE CHARONNE,75011,6h/22h,Oui,Non,,"{""coordinates"": [[2.392451361323424, 48.85749370656371]], ""type"": ""MultiPoint""}","48.85749370656371,2.392451361323424",2.392451361323424,48.85749370656371
316,SANISETTE,,opposé au 96 RUE OBERKAMPF,75011,6h/22h,Oui,Non,,"{""coordinates"": [[2.377607009280848, 48.865770227997636]], ""type"": ""MultiPoint""}","48.865770227997636,2.377607009280848",2.377607009280848,48.865770227997636
317,SANISETTE,,179  AVENUE DAUMESNIL,75012,6h/22h,Oui,Non,,"{""coordinates"": [[2.392040374875127, 48.840525428672]], ""type"": ""MultiPoint""}","48.840525428672,2.392040374875127",2.392040374875127,48.840525428672
318,SANISETTE,,face au 129  RUE DE LA GLACIERE,75013,6h/22h,Oui,Non,,"{""coordinates"": [[2.341806493177042, 48.826690707467044]], ""type"": ""MultiPoint""}","48.826690707467044,2.341806493177042",2.341806493177042,48.826690707467044
319,SANISETTE,,4  RUE MARTIN BERNARD,75013,24h/24h,Oui,Non,,"{""coordinates"": [[2.351328775975912, 48.8268991020181]], ""type"": ""MultiPoint""}","48.8268991020181,2.351328775975912",2.351328775975912,48.8268991020181
320,SANISETTE,,2  BOULEVARD JOURDAN,75014,6h/22h,Oui,Non,,"{""coordinates"": [[2.34433502420897, 48.81898671945179]], ""type"": ""MultiPoint""}","48.81898671945179,2.34433502420897",2.34433502420897,48.81898671945179
321,SANISETTE,,RUE DES MARINIERS,75014,6h/22h,Oui,Non,,"{""coordinates"": [[2.311198111631177, 48.82760820526359]], ""type"": ""MultiPoint""}","48.82760820526359,2.311198111631177",2.311198111631177,48.82760820526359
322,SANISETTE,,2  RUE JACQUES KELLNER,75017,6h/22h,Oui,Non,,"{""coordinates"": [[2.328040763341667, 48.89583555740396]], ""type"": ""MultiPoint""}","48.89583555740396,2.328040763341667",2.328040763341667,48.89583555740396
323,SANISETTE,,15  AVENUE DE LA PORTE DE CLIGNANCOURT,75018,6h/22h,Oui,Non,,"{""coordinates"": [[2.343963695246802, 48.8991942601401]], ""type"": ""MultiPoint""}","48.8991942601401,2.343963695246802",2.343963695246802,48.8991942601401
324,SANISETTE,,29  RUE MANIN,75019,24h/24h,Oui,Non,,"{""coordinates"": [[2.3782622313212523, 48.87861935487687]], ""type"": ""MultiPoint""}","48.87861935487687,2.3782622313212523",2.3782622313212523,48.87861935487687
325,SANISETTE,,14  RUE MEYNADIER,75019,6h/22h,Oui,Non,,"{""coordinates"": [[2.383450508308367, 48.883501985506584]], ""type"": ""MultiPoint""}","48.883501985506584,2.383450508308367",2.383450508308367,48.883501985506584
326,SANISETTE,,face au 196 BOULEVARD DE LA VILLETTE,75019,24h/24h,Oui,Non,,"{""coordinates"": [[2.370336342149233, 48.882213723425714]], ""type"": ""MultiPoint""}","48.882213723425714,2.370336342149233",2.370336342149233,48.882213723425714
327,SANISETTE,,RUE CESARIA EVORA,75019,6h/22h,Oui,Non,,"{""coordinates"": [[2.377469825874642, 48.89769666177365]], ""type"": ""MultiPoint""}","48.89769666177365,2.377469825874642",2.377469825874642,48.89769666177365
328,SANISETTE,,14  RUE SAINT MARTIN,75004,24h/24h,Oui,Non,,"{""coordinates"": [[2.349797594005607, 48.858200967363395]], ""type"": ""MultiPoint""}","48.858200967363395,2.349797594005607",2.349797594005607,48.858200967363395
329,SANISETTE,,face au 50 RUE DE RIVOLI,75004,24h/24h,Oui,Non,,"{""coordinates"": [[2.354183092290366, 48.85678942451888]], ""type"": ""MultiPoint""}","48.85678942451888,2.354183092290366",2.354183092290366,48.85678942451888
330,SANISETTE,,8  RUE JEAN CALVIN,75005,24h/24h,Oui,Non,,"{""coordinates"": [[2.348691572286761, 48.8416407780507]], ""type"": ""MultiPoint""}","48.8416407780507,2.348691572286761",2.348691572286761,48.8416407780507
331,TOILETTES,,PARC MONCEAU,75008,Voir fiche équipement,Non,Non,https://www.paris.fr/equipements/parc-monceau-1804,"{""coordinates"": [[2.309077189142378, 48.88027485340873]], ""type"": ""MultiPoint""}","48.88027485340873,2.309077189142378",2.309077189142378,48.88027485340873
332,TOILETTES,,SQUARE JULES VERNE,75011,Voir fiche équipement,Oui,Oui,https://www.paris.fr/equipements/square-jules-verne-2841,"{""coordinates"": [[2.375293804571365, 48.87001971632358]], ""type"": ""MultiPoint""}","48.87001971632358,2.375293804571365",2.375293804571365,48.87001971632358
333,TOILETTES,,JARDIN DE REUILLY - PAUL PERNIN,75012,Voir fiche équipement,Oui,Non,https://www.paris.fr/equipements/jardin-de-reuilly-paul-pernin-2573,"{""coordinates"": [[2.388283524133826, 48.84285653768209]], ""type"": ""MultiPoint""}","48.84285653768209,2.388283524133826",2.388283524133826,48.84285653768209
334,TOILETTES,,SQUARE DE LA RUE LEON FRAPIE,75020,Voir fiche équipement,Non,Non,https://www.paris.fr/equipements/square-leon-frapie-2722,"{""coordinates"": [[2.412143699957275, 48.87242040371037]], ""type"": ""MultiPoint""}","48.87242040371037,2.412143699957275",2.412143699957275,48.87242040371037
335,TOILETTES,,JARDIN DE L'HOSPICE DEBROUSSE,75020,Voir fiche équipement,Non,Non,https://www.paris.fr/equipements/jardin-de-l-hospice-debrousse-16194,"{""coordinates"": [[2.406993138173421, 48.862359830386104]], ""type"": ""MultiPoint""}","48.862359830386104,2.406993138173421",2.406993138173421,48.862359830386104
336,TOILETTES,,JARDIN DES GRANDS MOULINS - ABBE PIERRE - JARDIN CENTRAL,75013,Voir fiche équipement,Oui,Non,https://www.paris.fr/equipements/jardins-abbe-pierre-grands-moulins-5044,"{""coordinates"": [[2.379618715998577, 48.82961671975898]], ""type"": ""MultiPoint""}","48.82961671975898,2.379618715998577",2.379618715998577,48.82961671975898
337,TOILETTES,,JARDIN DE LA DALLE FOUGERE,75020,Voir fiche équipement,Non,Non,https://www.paris.fr/equipements/square-leon-frapie-2722,"{""coordinates"": [[2.412431784164808, 48.87218012240723]], ""type"": ""MultiPoint""}","48.87218012240723,2.412431784164808",2.412431784164808,48.87218012240723
338,TOILETTES,,SQUARE DU TEMPLE,75003,Voir fiche équipement,Non,Oui,https://www.paris.fr/equipements/square-du-temple-elie-wiesel-2425,"{""coordinates"": [[2.360499747594259, 48.86428649147141]], ""type"": ""MultiPoint""}","48.86428649147141,2.360499747594259",2.360499747594259,48.86428649147141
339,TOILETTES,,JARDIN ANNE FRANK (HOTEL SAINT-AIGNAN),75003,Voir fiche équipement,Oui,Non,https://www.paris.fr/equipements/jardin-anne-frank-2737,"{""coordinates"": [[2.354528582794358, 48.86140027201583]], ""type"": ""MultiPoint""}","48.86140027201583,2.354528582794358",2.354528582794358,48.86140027201583
340,TOILETTES,,JARDIN JAMES JOYCE,75013,Voir fiche équipement,Non,Non,https://www.paris.fr/equipements/jardin-james-joyce-2560,"{""coordinates"": [[2.373750809302066, 48.836321686226896]], ""type"": ""MultiPoint""}","48.836321686226896,2.373750809302066",2.373750809302066,48.836321686226896
341,TOILETTES,,SQUARE FLORENCE BLUMENTHAL,75013,Voir fiche équipement,Non,Non,https://www.paris.fr/equipements/square-florence-blumenthal-2523,"{""coordinates"": [[2.367317874534179, 48.82749838275663]], ""type"": ""MultiPoint""}","48.82749838275663,2.367317874534179",2.367317874534179,48.82749838275663
342,TOILETTES,,PARC DES BUTTES CHAUMONT,75019,Voir fiche équipement,Non,Non,https://www.paris.fr/equipements/parc-des-buttes-chaumont-1757,"{""coordinates"": [[2.385168519889268, 48.87986955015693]], ""type"": ""MultiPoint""}","48.87986955015693,2.385168519889268",2.385168519889268,48.87986955015693
343,TOILETTES,,JARDIN DEBERGUE-RENDEZ-VOUS,75012,Voir fiche équipement,Oui,Non,https://www.paris.fr/equipements/jardin-debergue-rendez-vous-2848,"{""coordinates"": [[2.403911070709572, 48.84657173098482]], ""type"": ""MultiPoint""}","48.84657173098482,2.403911070709572",2.403911070709572,48.84657173098482
344,TOILETTES,,SQUARE DE LA RUE BAYEN,75017,Voir fiche équipement,Non,Non,https://www.paris.fr/equipements/square-olave-et-robert-baden-powell-ex-bayen-2630,"{""coordinates"": [[2.290614026007785, 48.88215739534307]], ""type"": ""MultiPoint""}","48.88215739534307,2.290614026007785",2.290614026007785,48.88215739534307
345,TOILETTES,,JARDIN DE LA RUE GINETTE NEVEU,75018,Voir fiche équipement,Oui,Non,https://www.paris.fr/equipements/jardin-de-la-rue-ginette-neveu-2654,"{""coordinates"": [[2.345035089551902, 48.900016901607415]], ""type"": ""MultiPoint""}","48.900016901607415,2.345035089551902",2.345035089551902,48.900016901607415
346,WC PUBLICS PERMANENTS,,Parc Rives de Seine,75001,Voir fiche équipement,Non,Non,,"{""coordinates"": [[2.342722494673272, 48.85831632949923]], ""type"": ""MultiPoint""}","48.85831632949923,2.342722494673272",2.342722494673272,48.85831632949923
347,SANISETTE,,179  QUAI DE VALMY,75010,6h/1h,Oui,Non,,"{""coordinates"": [[2.367317820510683, 48.88016342714386]], ""type"": ""MultiPoint""}","48.88016342714386,2.367317820510683",2.367317820510683,48.88016342714386
348,SANISETTE,,18  AVENUE JEAN AICARD,75011,6h/1h,Oui,Non,,"{""coordinates"": [[2.380958599624835, 48.86569698373071]], ""type"": ""MultiPoint""}","48.86569698373071,2.380958599624835",2.380958599624835,48.86569698373071
349,SANISETTE,,283  RUE DE CHARENTON,75012,6h/1h,Oui,Non,,"{""coordinates"": [[2.393533357001098, 48.83473828707719]], ""type"": ""MultiPoint""}","48.83473828707719,2.393533357001098",2.393533357001098,48.83473828707719
350,SANISETTE,,face au 32  BOULEVARD EDGAR QUINET,75014,24h/24h,Oui,Non,,"{""coordinates"": [[2.326831211101864, 48.84047147744345]], ""type"": ""MultiPoint""}","48.84047147744345,2.326831211101864",2.326831211101864,48.84047147744345
351,SANISETTE,,4  PLACE DE BRETEUIL,75015,6h/22h,Oui,Non,,"{""coordinates"": [[2.3109598986410163, 48.84733413997167]], ""type"": ""MultiPoint""}","48.84733413997167,2.3109598986410163",2.3109598986410163,48.84733413997167
352,SANISETTE,,BOULEVARD GARIBALDI,75015,6h/22h,Oui,Non,,"{""coordinates"": [[2.302072031091217, 48.8478417919066]], ""type"": ""MultiPoint""}","48.8478417919066,2.302072031091217",2.302072031091217,48.8478417919066
353,SANISETTE,,3  RUE DE LA GOUTTE D OR,75018,6h/22h,Oui,Non,,"{""coordinates"": [[2.354863996144927, 48.885028142206096]], ""type"": ""MultiPoint""}","48.885028142206096,2.354863996144927",2.354863996144927,48.885028142206096
354,SANISETTE,,opposé au 17 RUE LIEUTENANT COLONEL DAX,75018,6h/22h,Oui,Non,,"{""coordinates"": [[2.340228067255163, 48.900705833417085]], ""type"": ""MultiPoint""}","48.900705833417085,2.340228067255163",2.340228067255163,48.900705833417085
355,SANISETTE,,9  AVENUE DE LA PORTE DE LA VILLETTE,75019,24h/24h,Oui,Non,,"{""coordinates"": [[2.386774783986592, 48.898974839975054]], ""type"": ""MultiPoint""}","48.898974839975054,2.386774783986592",2.386774783986592,48.898974839975054
356,SANISETTE,,171  RUE DES PYRENEES,75020,6h/22h,Oui,Non,,"{""coordinates"": [[2.40102151004381, 48.86001571292929]], ""type"": ""MultiPoint""}","48.86001571292929,2.40102151004381",2.40102151004381,48.86001571292929
357,SANISETTE,,32  AVENUE GEORGE V,75008,6h/22h,Oui,Non,,"{""coordinates"": [[2.30122008119351, 48.868840348754716]], ""type"": ""MultiPoint""}","48.868840348754716,2.30122008119351",2.30122008119351,48.868840348754716
358,SANISETTE,,65  BOULEVARD DE CLICHY,75009,24h/24h,Oui,Non,,"{""coordinates"": [[2.331784835499315, 48.88398130352188]], ""type"": ""MultiPoint""}","48.88398130352188,2.331784835499315",2.331784835499315,48.88398130352188
359,SANISETTE,,SQUARE ALBAN SATRAGNE,75010,24h/24h,Oui,Non,,"{""coordinates"": [[2.3558626724604173, 48.87578071143161]], ""type"": ""MultiPoint""}","48.87578071143161,2.3558626724604173",2.3558626724604173,48.87578071143161
360,SANISETTE,,face au 4 AVENUE CLAUDE VELLEFAUX,75010,6h/1h,Oui,Non,,"{""coordinates"": [[2.369583030462242, 48.872315075210196]], ""type"": ""MultiPoint""}","48.872315075210196,2.369583030462242",2.369583030462242,48.872315075210196
361,TOILETTES,,SQUARE DES MISSIONS ETRANGERES,75007,Voir fiche équipement,Non,Non,https://www.paris.fr/equipements/square-des-missions-etrangeres-2463,"{""coordinates"": [[2.324502934107624, 48.85240888634458]], ""type"": ""MultiPoint""}","48.85240888634458,2.324502934107624",2.324502934107624,48.85240888634458
362,TOILETTES,,SQUARE MAURICE GARDETTE,75011,Voir fiche équipement,Non,Non,https://www.paris.fr/equipements/square-maurice-gardette-2725,"{""coordinates"": [[2.378748375701655, 48.86145746772124]], ""type"": ""MultiPoint""}","48.86145746772124,2.378748375701655",2.378748375701655,48.86145746772124
363,TOILETTES,,JARDIN EMILE GALLE,75011,Voir fiche équipement,Non,Non,https://www.paris.fr/equipements/jardin-emile-galle-2730,"{""coordinates"": [[2.390465302238812, 48.85378509897565]], ""type"": ""MultiPoint""}","48.85378509897565,2.390465302238812",2.390465302238812,48.85378509897565
364,TOILETTES,,SQUARE LOUIS MAJORELLE,75011,Voir fiche équipement,Oui,Non,https://www.paris.fr/equipements/square-louis-majorelle-2733,"{""coordinates"": [[2.380924006050463, 48.85199247850565]], ""type"": ""MultiPoint""}","48.85199247850565,2.380924006050463",2.380924006050463,48.85199247850565
365,TOILETTES,,PARC DE BERCY,75012,Voir fiche équipement,Oui,Oui,https://www.paris.fr/equipements/jardin-georges-duhamel-2559,"{""coordinates"": [[2.382471399395286, 48.83398319424073]], ""type"": ""MultiPoint""}","48.83398319424073,2.382471399395286",2.382471399395286,48.83398319424073
366,TOILETTES,,JARDIN DE LA FOLIE TITON,75011,Voir fiche équipement,Non,Non,https://www.paris.fr/equipements/jardin-de-la-folie-titon-2842,"{""coordinates"": [[2.385387214042942, 48.8521493384893]], ""type"": ""MultiPoint""}","48.8521493384893,2.385387214042942",2.385387214042942,48.8521493384893
367,TOILETTES,,PARC MONTSOURIS,75014,Voir fiche équipement,Non,Non,https://www.paris.fr/equipements/jardin-et-aire-de-jeux-de-la-zac-alesia-montsouris-2867,"{""coordinates"": [[2.336047447095454, 48.82123528431706]], ""type"": ""MultiPoint""}","48.82123528431706,2.336047447095454",2.336047447095454,48.82123528431706
368,TOILETTES,,PARC DES BUTTES CHAUMONT,75019,Voir fiche équipement,Non,Non,https://www.paris.fr/equipements/parc-des-buttes-chaumont-1757,"{""coordinates"": [[2.380334558131946, 48.88014301552132]], ""type"": ""MultiPoint""}","48.88014301552132,2.380334558131946",2.380334558131946,48.88014301552132
369,TOILETTES,,PARC DES BUTTES CHAUMONT,75019,Voir fiche équipement,Non,Non,https://www.paris.fr/equipements/parc-des-buttes-chaumont-1757,"{""coordinates"": [[2.380790072781452, 48.876855458646126]], ""type"": ""MultiPoint""}","48.876855458646126,2.380790072781452",2.380790072781452,48.876855458646126
370,TOILETTES,,COULEE VERTE RENE DUMONT - PROMENADE DU VIADUC DES ARTS,75012,Voir fiche équipement,Oui,Oui,https://www.paris.fr/equipements/square-philippe-farine-ex-square-du-mail-gatbois-2601,"{""coordinates"": [[2.381996878028027, 48.84435659883764]], ""type"": ""MultiPoint""}","48.84435659883764,2.381996878028027",2.381996878028027,48.84435659883764
371,TOILETTES,,SQUARE PAUL LANGEVIN,75005,Voir fiche équipement,Non,Non,https://www.paris.fr/equipements/square-paul-langevin-2446,"{""coordinates"": [[2.349373393516292, 48.84815530354401]], ""type"": ""MultiPoint""}","48.84815530354401,2.349373393516292",2.349373393516292,48.84815530354401
372,SANISETTE,,opposé au 52 bis BOULEVARD RICHARD LENOIR,75011,6h/22h,Oui,Non,,"{""coordinates"": [[2.37200200665522, 48.85930978120497]], ""type"": ""MultiPoint""}","48.85930978120497,2.37200200665522",2.37200200665522,48.85930978120497
373,SANISETTE,,124  AVENUE DU GENERAL MICHEL BIZOT,75012,6h/22h,Oui,Non,,"{""coordinates"": [[2.404662780036119, 48.840456320638104]], ""type"": ""MultiPoint""}","48.840456320638104,2.404662780036119",2.404662780036119,48.840456320638104
374,SANISETTE,,32  BOULEVARD DIDEROT,75012,24h/24h,Oui,Non,,"{""coordinates"": [[2.376547762162363, 48.846112571054796]], ""type"": ""MultiPoint""}","48.846112571054796,2.376547762162363",2.376547762162363,48.846112571054796
375,SANISETTE,,90  RUE DE TOLBIAC,75013,6h/1h,Oui,Non,,"{""coordinates"": [[2.364581365240385, 48.82683406786535]], ""type"": ""MultiPoint""}","48.82683406786535,2.364581365240385",2.364581365240385,48.82683406786535
376,SANISETTE,,face au 159 AVENUE DE CHOISY,75013,6h/22h,Oui,Non,,"{""coordinates"": [[2.358453201102806, 48.828198365793185]], ""type"": ""MultiPoint""}","48.828198365793185,2.358453201102806",2.358453201102806,48.828198365793185
377,SANISETTE,,opposé au 17 BOULEVARD AUGUSTE BLANQUI,75013,6h/22h,Oui,Non,,"{""coordinates"": [[2.3533725291965792, 48.83062624643756]], ""type"": ""MultiPoint""}","48.83062624643756,2.3533725291965792",2.3533725291965792,48.83062624643756
378,SANISETTE,,face au 14 AVENUE RENE COTY,75014,6h/22h,Oui,Non,,"{""coordinates"": [[2.333834169548373, 48.83036895346168]], ""type"": ""MultiPoint""}","48.83036895346168,2.333834169548373",2.333834169548373,48.83036895346168
379,SANISETTE,,23  RUE DU DEPART,75014,24h/24h,Oui,Non,,"{""coordinates"": [[2.323164983219899, 48.84217571141368]], ""type"": ""MultiPoint""}","48.84217571141368,2.323164983219899",2.323164983219899,48.84217571141368
380,SANISETTE,,26  PLACE ETIENNE PERNET,75015,24h/24h,Oui,Non,,"{""coordinates"": [[2.292137239974755, 48.84258937721881]], ""type"": ""MultiPoint""}","48.84258937721881,2.292137239974755",2.292137239974755,48.84258937721881
381,SANISETTE,,2  PLACE DE BARCELONE,75016,6h/22h,Oui,Non,,"{""coordinates"": [[2.273632592942298, 48.84768231148525]], ""type"": ""MultiPoint""}","48.84768231148525,2.273632592942298",2.273632592942298,48.84768231148525
382,SANISETTE,,135  AVENUE DE CLICHY,75017,6h/22h,Oui,Non,,"{""coordinates"": [[2.319670103069588, 48.89080735250064]], ""type"": ""MultiPoint""}","48.89080735250064,2.319670103069588",2.319670103069588,48.89080735250064
383,SANISETTE,,74  AVENUE DE SAINT OUEN,75018,6h/22h,Oui,Non,,"{""coordinates"": [[2.3271840142740983, 48.89193708249992]], ""type"": ""MultiPoint""}","48.89193708249992,2.3271840142740983",2.3271840142740983,48.89193708249992
384,SANISETTE,,RUE DE L'EVANGILE,75018,6h/22h,Oui,Non,,"{""coordinates"": [[2.361214699113301, 48.89149999854925]], ""type"": ""MultiPoint""}","48.89149999854925,2.361214699113301",2.361214699113301,48.89149999854925
385,SANISETTE,,RUE HENRI HUCHARD,75018,6h/22h,Oui,Non,,"{""coordinates"": [[2.334164088675307, 48.898997853477596]], ""type"": ""MultiPoint""}","48.898997853477596,2.334164088675307",2.334164088675307,48.898997853477596
386,SANISETTE,,92  RUE CURIAL,75019,6h/22h,Oui,Non,,"{""coordinates"": [[2.375661473541838, 48.895834539709824]], ""type"": ""MultiPoint""}","48.895834539709824,2.375661473541838",2.375661473541838,48.895834539709824
387,SANISETTE,,RUE DE CRIMEE,75019,6h/1h,Oui,Non,,"{""coordinates"": [[2.379033965091644, 48.88883561898796]], ""type"": ""MultiPoint""}","48.88883561898796,2.379033965091644",2.379033965091644,48.88883561898796
388,SANISETTE,,44  RUE BERGER,75001,6h/1h,Oui,Non,,"{""coordinates"": [[2.342203221829112, 48.86234030275965]], ""type"": ""MultiPoint""}","48.86234030275965,2.342203221829112",2.342203221829112,48.86234030275965
389,SANISETTE,,face au 34 RUE DU GRENIER SAINT LAZARE,75003,6h/22h,Oui,Non,,"{""coordinates"": [[2.352717714733575, 48.8630936107319]], ""type"": ""MultiPoint""}","48.8630936107319,2.352717714733575",2.352717714733575,48.8630936107319
390,SANISETTE,,123  RUE SAINT JACQUES,75005,6h/1h,Oui,Non,,"{""coordinates"": [[2.343987824033075, 48.84781204558067]], ""type"": ""MultiPoint""}","48.84781204558067,2.343987824033075",2.343987824033075,48.84781204558067
391,SANISETTE,,face au 139 BOULEVARD SAINT MICHEL,75006,24h/24h,Oui,Non,,"{""coordinates"": [[2.337484628388991, 48.84175443253953]], ""type"": ""MultiPoint""}","48.84175443253953,2.337484628388991",2.337484628388991,48.84175443253953
392,SANISETTE,,186  BOULEVARD SAINT GERMAIN,75006,24h/24h,Oui,Non,,"{""coordinates"": [[2.330995211131629, 48.854428127216]], ""type"": ""MultiPoint""}","48.854428127216,2.330995211131629",2.330995211131629,48.854428127216
393,SANISETTE,,41  PLACE DE FINLANDE,75007,24h/24h,Oui,Non,,"{""coordinates"": [[2.310808622720738, 48.86247699359682]], ""type"": ""MultiPoint""}","48.86247699359682,2.310808622720738",2.310808622720738,48.86247699359682
394,TOILETTES,,JARDIN CATHERINE LABOURE,75007,Voir fiche équipement,Non,Non,https://www.paris.fr/equipements/jardin-catherine-laboure-2465,"{""coordinates"": [[2.320485393255728, 48.85140130471326]], ""type"": ""MultiPoint""}","48.85140130471326,2.320485393255728",2.320485393255728,48.85140130471326
395,TOILETTES,,SQUARE FROT-PHALSBOURG,75011,Voir fiche équipement,Non,Non,https://www.paris.fr/equipements/square-frot-phalsbourg-2845,"{""coordinates"": [[2.385394116472173, 48.85582536021133]], ""type"": ""MultiPoint""}","48.85582536021133,2.385394116472173",2.385394116472173,48.85582536021133
396,TOILETTES,,SQUARE ALAIN BASHUNG,75018,Voir fiche équipement,Non,Non,https://www.paris.fr/equipements/square-alain-bashung-15429,"{""coordinates"": [[2.356093168659291, 48.88506257518371]], ""type"": ""MultiPoint""}","48.88506257518371,2.356093168659291",2.356093168659291,48.88506257518371
397,TOILETTES,,BOIS DE BOULOGNE - PARC DE BAGATELLE - GRILLE DE SEVRES,75016,Voir fiche équipement,Non,Non,https://www.paris.fr/equipements/parc-de-bagatelle-1808,"{""coordinates"": [[2.246175578808388, 48.87056564529141]], ""type"": ""MultiPoint""}","48.87056564529141,2.246175578808388",2.246175578808388,48.87056564529141
398,TOILETTES,,SQUARE LEOPOLD ACHILLE,75003,Voir fiche équipement,Oui,Non,https://www.paris.fr/equipements/square-leopold-achille-2431,"{""coordinates"": [[2.363290758247611, 48.85822475886469]], ""type"": ""MultiPoint""}","48.85822475886469,2.363290758247611",2.363290758247611,48.85822475886469
399,TOILETTES,,JARDIN NATUREL-PIERRE EMMANUEL,75020,Voir fiche équipement,Non,Non,https://www.paris.fr/equipements/jardin-lesseps-17432,"{""coordinates"": [[2.399128749545261, 48.85873792339389]], ""type"": ""MultiPoint""}","48.85873792339389,2.399128749545261",2.399128749545261,48.85873792339389
400,TOILETTES,,SQUARE DU SERMENT DE KOUFRA,75014,Voir fiche équipement,Oui,Non,https://www.paris.fr/equipements/square-du-serment-de-koufra-1773,"{""coordinates"": [[2.323600153804334, 48.822256265999734]], ""type"": ""MultiPoint""}","48.822256265999734,2.323600153804334",2.323600153804334,48.822256265999734
401,TOILETTES,,JARDINS DE LA PORTE DE SAINT CLOUD,75016,Voir fiche équipement,Oui,Non,https://www.paris.fr/equipements/jardins-de-la-porte-de-saint-cloud-et-square-roger-coquoin-2623,"{""coordinates"": [[2.254693572298353, 48.835869491249895]], ""type"": ""MultiPoint""}","48.835869491249895,2.254693572298353",2.254693572298353,48.835869491249895
402,TOILETTES,,SQUARE CARPEAUX,75018,Voir fiche équipement,Oui,Non,https://www.paris.fr/equipements/square-carpeaux-2646,"{""coordinates"": [[2.331619279991791, 48.891476402292284]], ""type"": ""MultiPoint""}","48.891476402292284,2.331619279991791",2.331619279991791,48.891476402292284
403,TOILETTES,,SQUARE DE LA TOUR SAINT-JACQUES,75004,Voir fiche équipement,Non,Non,https://www.paris.fr/equipements/square-de-la-tour-saint-jacques-33,"{""coordinates"": [[2.349321271888649, 48.85778654782919]], ""type"": ""MultiPoint""}","48.85778654782919,2.349321271888649",2.349321271888649,48.85778654782919
